city,company,country,date,jobkey,jobtitle,latitude,longitude,state,url,excel,sql,mysql,python,java,c++,sas,matlab,php,perl,hadoop,hive,spss,linux_unix,bachelor,master,phd
Cleveland,Airgas Inc.,US,2014-08-26 21:19:43,4e22b4506ed4834e,Data Analyst - SAP ABAP,41.497253,-81.69231,OH,http://www.indeed.com/viewjob?jk=4e22b4506ed4834e&qd=MxQEkSlos1GEjU62O1KFoRQw54NvLaDNxEJ5HB_yo9IzKNHijS7kTjt4KmPZaQ54tR1Zys_YS33zV-EIckb4SoCHEdfyMkuNX3qwb0phha4&indpubnum=4889224015872296&atk=190a5h1qm1d4h78a,1,1,0,0,0,0,0,0,0,0,0,0,0,0,1,1,0
Radnor,Airgas Inc.,US,2014-08-26 21:19:43,67e86d5803e41304,Data Analyst - SAP ABAP,40.043957,-75.35714,PA,http://www.indeed.com/viewjob?jk=67e86d5803e41304&qd=MxQEkSlos1GEjU62O1KFoRQw54NvLaDNxEJ5HB_yo9JBy2QeS2uKGSlme_PhyJLGmPkNxTj973naemBASyztlyFv9hTfj3LC5rfMCG2D_sI&indpubnum=4889224015872296&atk=190a5iuh71d324ip,1,1,0,0,0,0,0,0,0,0,0,0,0,0,1,1,0
Florham Park,"Managed Health Care Associates, Inc.",US,2014-08-26 21:00:51,970f4dff3e6fdcd8,Data Analyst/Personal Account Representative- Navigator,40.774727,-74.39011,NJ,http://www.indeed.com/viewjob?jk=970f4dff3e6fdcd8&qd=MxQEkSlos1GEjU62O1KFoRQw54NvLaDNxEJ5HB_yo9IuoauPq75eD-dhOEz8DE_n8gtCm65lPbNJ01qX1cWx2UoskdDmAdFiBqe4FPyvqEI&indpubnum=4889224015872296&atk=190a5e2l31d523nd,1,0,0,0,0,0,0,0,0,0,0,0,0,0,0,1,0
Vancouver,Southwest Washington Behavioral Health,US,2014-08-26 21:00:21,746b4551bb94cda4,IS & IT Data Analyst,45.71154,-122.59341,WA,http://www.indeed.com/viewjob?jk=746b4551bb94cda4&qd=MxQEkSlos1GEjU62O1KFoRQw54NvLaDNxEJ5HB_yo9L3eGb1R6djEvbLTasqTfyz4Z0r1R5zmkNbj4VOJWHLHFjMuIZOSm00Jj-u8fFXwhc&indpubnum=4889224015872296&atk=190a5oq3v1d526ee,0,0,0,0,0,0,0,0,0,0,0,0,0,0,0,0,0
Cranford,Partners Pharmacy,US,2014-08-26 21:00:20,eb4b369c2373a9e4,Application Support Specialist - CS,40.653847,-74.3022,NJ,http://www.indeed.com/viewjob?jk=eb4b369c2373a9e4&qd=MxQEkSlos1GEjU62O1KFoRQw54NvLaDNxEJ5HB_yo9IuoauPq75eD-dhOEz8DE_n8gtCm65lPbNJ01qX1cWx2UoskdDmAdFiBqe4FPyvqEI&indpubnum=4889224015872296&atk=190a5e2l31d523nd,1,1,0,0,0,0,0,0,0,0,0,0,0,0,0,0,0
Springfield,Raytheon,US,2014-08-26 20:52:09,eef32999f3d2aa99,Principal Cyber Engineer,38.78846,-77.18681,VA,http://www.indeed.com/viewjob?jk=eef32999f3d2aa99&qd=MxQEkSlos1GEjU62O1KFoRQw54NvLaDNxEJ5HB_yo9JJuNxUwSX-dwk-w0wHXusNOEyi7Ig2BiUiTPzAZ8bhd7u7ogirHcm_QTCvt4Vb73w&indpubnum=4889224015872296&atk=190a525q01d425rv,0,0,0,0,0,0,0,0,0,0,0,0,0,0,0,0,0
Piscataway,Carroll Technology Services,US,2014-08-26 20:45:15,a0203234349ecce6,Contract SQL data Analyst,40.497253,-74.39561,NJ,http://www.indeed.com/viewjob?jk=a0203234349ecce6&qd=MxQEkSlos1GEjU62O1KFoRQw54NvLaDNxEJ5HB_yo9IuoauPq75eD-dhOEz8DE_n8gtCm65lPbNJ01qX1cWx2YZjawTUSu96TVCP4nxnY7U&indpubnum=4889224015872296&atk=190a5e3sg1d2h5q9,0,1,0,0,0,0,1,0,0,0,0,0,0,0,0,0,0
Charlotte,TEKsystems,US,2014-08-26 20:22:22,50da9c9d28ea2bd6,DATA MODELER,35.225273,-80.84066,NC,http://www.indeed.com/viewjob?jk=50da9c9d28ea2bd6&qd=MxQEkSlos1GEjU62O1KFoRQw54NvLaDNxEJ5HB_yo9I7mSQq4nfhItdpLIhAcQhv5b84G9kPk0ZXIu9oaLz88lO0Pmg2DxQtLM_69ugIucM&indpubnum=4889224015872296&atk=190a5fu6v1d7254h,1,1,0,0,0,0,0,0,0,0,0,0,0,0,1,0,0
Phoenix,ConsultUSA,US,2014-08-26 20:18:25,1fb033dfb99eacd6,Data Analyst,33.447803,-112.07143,AZ,http://www.indeed.com/viewjob?jk=1fb033dfb99eacd6&qd=MxQEkSlos1GEjU62O1KFoRQw54NvLaDNxEJ5HB_yo9KrTuu6tw4ei6gHgAFnSzvzezxp6HtNeobRzrUgmyplQF_Myy4wCqX-EwAvADjOM-E&indpubnum=4889224015872296&atk=190a4vsmp1d3117a,1,0,0,0,0,0,0,0,0,1,0,0,0,0,0,0,0
Research Triangle Park,"Alphanumeric Systems, Inc",US,2014-08-26 20:07:57,c2dedefe9ef3e542,Data Analyst - SQL Queries,35.895603,-78.85714,NC,http://www.indeed.com/viewjob?jk=c2dedefe9ef3e542&qd=MxQEkSlos1GEjU62O1KFoRQw54NvLaDNxEJ5HB_yo9I7mSQq4nfhItdpLIhAcQhv5b84G9kPk0ZXIu9oaLz88lO0Pmg2DxQtLM_69ugIucM&indpubnum=4889224015872296&atk=190a5ftv71d4i46j,1,1,0,0,0,0,0,0,0,0,0,0,0,0,0,0,0
Mount Vernon,Exodus Integrity Services,US,2014-08-26 20:04:16,3da591922766cb52,Web Data Analyst,40.392857,-82.48351,OH,http://www.indeed.com/viewjob?jk=3da591922766cb52&qd=MxQEkSlos1GEjU62O1KFoRQw54NvLaDNxEJ5HB_yo9IzKNHijS7kTjt4KmPZaQ54tR1Zys_YS33zV-EIckb4Sl4v1r9IRXxZu2l8KPe2HsM&indpubnum=4889224015872296&atk=190a5h18s1d526ga,1,1,0,0,0,0,0,0,0,0,0,0,0,0,1,0,0
Anaheim,"Evriholder Products, Inc.",US,2014-08-26 19:58:26,b6ae20a2567dc641,Inventory Forescast Analyst,33.835163,-117.90659,CA,http://www.indeed.com/viewjob?jk=b6ae20a2567dc641&qd=MxQEkSlos1GEjU62O1KFoRQw54NvLaDNxEJ5HB_yo9KhckHN80-uURCmMV-ouodrGp6jym_krcGFaWElJybt0fWjcEjh4gTkJgkG9GZHrA4&indpubnum=4889224015872296&atk=190a50knm1d4i0gs,1,0,0,0,0,0,0,0,0,0,0,0,0,0,1,1,0
Suffern,LS Direct Marketing,US,2014-08-26 19:58:26,d8827c4da207b0c9,Data Analyst - Retail,41.126373,-74.10989,NY,http://www.indeed.com/viewjob?jk=d8827c4da207b0c9&qd=MxQEkSlos1GEjU62O1KFoRQw54NvLaDNxEJ5HB_yo9KUPDXN_D2AI1pADZ5diohv_MQgRfwuc1MYwhqfMjIoKI2U3QTJPT2CgyG-_EbbzWE&indpubnum=4889224015872296&atk=190a5f9401d4i2jj,1,1,1,1,0,0,0,0,0,0,0,0,0,0,1,0,0
Atlanta,"ARROW EXTERMINATORS , Inc",US,2014-08-26 19:55:14,33b02952129d4028,Customer Care Data Analyst - Atlanta,33.747253,-84.38461,GA,http://www.indeed.com/viewjob?jk=33b02952129d4028&qd=MxQEkSlos1GEjU62O1KFoRQw54NvLaDNxEJ5HB_yo9LNwCtnSNwkyNdqADMRsp0qGPnusQxy_m1-iys11mXFOK40qiRV4FsQIjhNKSvSW2Q&indpubnum=4889224015872296&atk=190a53kfn1d514e5,1,0,0,0,0,0,0,0,0,0,0,0,0,0,1,1,0
Lawrence,Commonwealth of Massachusetts,US,2014-08-26 19:37:25,df4bdc34200a8c58,P/T ESOL COORDINATOR - CENTER FOR ADULT EDUCATION PROGRAMS AND PRACTITIONER,42.706043,-71.15934,MA,http://www.indeed.com/viewjob?jk=df4bdc34200a8c58&qd=MxQEkSlos1GEjU62O1KFoRQw54NvLaDNxEJ5HB_yo9LulBvtWb3NvLPZ9bcwG7w0LKuJy9BzgjjY5yEKN_5Fi9iAhEiu3uhE4jUKCsfxbNw&indpubnum=4889224015872296&atk=190a592u91d3123b,0,0,0,0,0,0,0,0,0,0,0,0,0,0,1,1,0
Sacramento,Quest Technology Management,US,2014-08-26 19:32:50,9d591149ea1383b0,Data Analyst,38.57967,-121.48901,CA,http://www.indeed.com/viewjob?jk=9d591149ea1383b0&qd=MxQEkSlos1GEjU62O1KFoRQw54NvLaDNxEJ5HB_yo9KhckHN80-uURCmMV-ouodrGp6jym_krcGFaWElJybt0QxcXH_0LlPhmrOJCaT-DQY&indpubnum=4889224015872296&atk=190a50k581d5i3a0,1,1,0,0,0,0,1,0,0,0,0,0,0,0,0,1,0
Chicago,Chicago Public Schools,US,2014-08-26 19:26:02,9e00498048f55706,Data Analyst & Eval Spclst (Assessments/Standards),41.8489,-87.64835,IL,http://www.indeed.com/viewjob?jk=9e00498048f55706&qd=MxQEkSlos1GEjU62O1KFoRQw54NvLaDNxEJ5HB_yo9Ji_N1lCNco_1Qb6o_wn_YYbUylFMtGSdj3wGw9oPlG2k9xuLcrhLJ7tWyVkeDXfBo&indpubnum=4889224015872296&atk=190a550rf1d3i11f,0,1,0,0,0,0,0,0,0,0,0,0,0,0,1,1,0
Flint,McLaren Health Care,US,2014-08-26 19:23:36,29c006361a1120a2,Benefits Data Analyst,43.01099,-83.68681,MI,http://www.indeed.com/viewjob?jk=29c006361a1120a2&qd=MxQEkSlos1GEjU62O1KFoRQw54NvLaDNxEJ5HB_yo9KuVRqHRC-nko9OQoZAFJUNezxp6HtNeobRzrUgmyplQHZvQWeZ6mSWHReWR01vCoM&indpubnum=4889224015872296&atk=190a59kvs1d5h7m0,1,1,0,0,0,0,0,0,0,0,0,0,0,0,1,0,0
Washington,"GreenZone Solutions, Inc.",US,2014-08-26 19:22:01,12b431518627e33d,Data Analyst w/clearance,38.892857,-77.03297,DC,http://www.indeed.com/viewjob?jk=12b431518627e33d&qd=MxQEkSlos1GEjU62O1KFoRQw54NvLaDNxEJ5HB_yo9JJuNxUwSX-dwk-w0wHXusNOEyi7Ig2BiUiTPzAZ8bhdxZp0YAHoVjVeaQQBYHgJVA&indpubnum=4889224015872296&atk=190a527bf1d3i19n,1,1,0,0,0,0,1,0,0,0,0,0,1,0,1,1,0
Atlanta,Cox Communications Incorporated,US,2014-08-26 19:21:32,cfec00a79fcfb53a,Product Services Engineer,33.747253,-84.38461,GA,http://www.indeed.com/viewjob?jk=cfec00a79fcfb53a&qd=MxQEkSlos1GEjU62O1KFoRQw54NvLaDNxEJ5HB_yo9LNwCtnSNwkyNdqADMRsp0qGPnusQxy_m1-iys11mXFOK40qiRV4FsQIjhNKSvSW2Q&indpubnum=4889224015872296&atk=190a53km11d4h3ie,1,0,0,0,0,0,0,0,0,0,0,0,0,0,1,0,0
Research Triangle Park,Sai People Solutions,US,2014-08-26 19:14:14,3bd0750cfa1c6ffc,Data Analyst,35.895603,-78.85714,NC,http://www.indeed.com/viewjob?jk=3bd0750cfa1c6ffc&qd=MxQEkSlos1GEjU62O1KFoRQw54NvLaDNxEJ5HB_yo9I7mSQq4nfhItdpLIhAcQhv5b84G9kPk0ZXIu9oaLz88imlF8mJMlpG_IoKjZ4oz0w&indpubnum=4889224015872296&atk=190a5ftd01d6h15q,1,1,0,0,0,0,0,0,0,0,0,0,0,0,0,0,0
Boston,WinterWyman,US,2014-08-26 19:07:15,4daae28ae75c287d,Research/Data Analyst,42.357143,-71.05495,MA,http://www.indeed.com/viewjob?jk=4daae28ae75c287d&qd=MxQEkSlos1GEjU62O1KFoRQw54NvLaDNxEJ5HB_yo9LulBvtWb3NvLPZ9bcwG7w0LKuJy9BzgjjY5yEKN_5Fi9iAhEiu3uhE4jUKCsfxbNw&indpubnum=4889224015872296&atk=190a593k61d6h6el,1,0,0,0,0,0,0,0,0,0,0,0,0,0,1,1,0
Kannapolis,Cardinal Innovations Healthcare Solutions,US,2014-08-26 19:05:03,6df6f02d3f483767,Quality Compliance Data Analyst,35.486263,-80.62088,NC,http://www.indeed.com/viewjob?jk=6df6f02d3f483767&qd=MxQEkSlos1GEjU62O1KFoRQw54NvLaDNxEJ5HB_yo9I7mSQq4nfhItdpLIhAcQhv5b84G9kPk0ZXIu9oaLz88imlF8mJMlpG_IoKjZ4oz0w&indpubnum=4889224015872296&atk=190a5ftd01d6h15q,1,0,0,0,0,0,0,0,0,0,0,0,0,0,1,0,0
Minneapolis,Entegee,US,2014-08-26 19:04:08,b18c11d8adec230f,Data Analyst,44.978024,-93.26373,MN,http://www.indeed.com/viewjob?jk=b18c11d8adec230f&qd=MxQEkSlos1GEjU62O1KFoRQw54NvLaDNxEJ5HB_yo9IQ9Ji1NXswmwoyMQeMSJhNlV9Ci6VerZMrLprUxSeWWohgpx6hvbHKvyCs5brfhOw&indpubnum=4889224015872296&atk=190a5a73s1d5i3u8,0,1,0,0,0,0,0,0,0,0,0,0,0,0,1,0,0
Chicago,NCR Technosolutions LLC,US,2014-08-26 18:59:23,025289f1f21aa7db,SAP BI/BO Professionals,41.884617,-87.62088,IL,http://www.indeed.com/viewjob?jk=025289f1f21aa7db&qd=MxQEkSlos1GEjU62O1KFoRQw54NvLaDNxEJ5HB_yo9Ji_N1lCNco_1Qb6o_wn_YYbUylFMtGSdj3wGw9oPlG2gvTIwPGDPu2at-8N_fRUvs&indpubnum=4889224015872296&atk=190a551ge1d514m5,0,1,0,0,0,0,0,0,0,0,0,0,0,0,1,0,0
San Francisco,Excelsior College,US,2014-08-26 18:59:21,46cbc15179769ca4,Consultant - Outreach Representative,37.774727,-122.41758,CA,http://www.indeed.com/viewjob?jk=46cbc15179769ca4&qd=MxQEkSlos1GEjU62O1KFoRQw54NvLaDNxEJ5HB_yo9KhckHN80-uURCmMV-ouodrGp6jym_krcGFaWElJybt0fWjcEjh4gTkJgkG9GZHrA4&indpubnum=4889224015872296&atk=190a50ku21d3h4p6,1,0,0,0,0,0,0,0,0,0,0,0,0,0,1,1,0
New York,Excelsior College,US,2014-08-26 18:59:21,f0d3a3c52c3f4980,Consultant - Outreach Representative,40.71154,-74.00549,NY,http://www.indeed.com/viewjob?jk=f0d3a3c52c3f4980&qd=MxQEkSlos1GEjU62O1KFoRQw54NvLaDNxEJ5HB_yo9KUPDXN_D2AI1pADZ5diohv_MQgRfwuc1MYwhqfMjIoKG8aNGOcT_y2Q5lXCz6jV5s&indpubnum=4889224015872296&atk=190a5f8jq1d3h3fu,1,0,0,0,0,0,0,0,0,0,0,0,0,0,1,1,0
Loveland,HCMS Group,US,2014-08-26 18:59:04,feedd839482068a3,Data Analyst,40.425823,-105.09341,CO,http://www.indeed.com/viewjob?jk=feedd839482068a3&qd=MxQEkSlos1GEjU62O1KFoRQw54NvLaDNxEJ5HB_yo9IrKAxaAZAJmmRE2mGDz-1JYyxJ1mIsKdyqzLj5sotZUTgKnFPKLGAcxfyCcq5lBSo&indpubnum=4889224015872296&atk=190a5136g1d421i2,1,1,0,0,0,0,1,0,0,0,0,0,0,0,0,1,0
Seattle,Kelly Services,US,2014-08-26 18:57:44,30aea076716b8b1d,Entry Level Data Analyst,47.626373,-122.34066,WA,http://www.indeed.com/viewjob?jk=30aea076716b8b1d&qd=MxQEkSlos1GEjU62O1KFoRQw54NvLaDNxEJ5HB_yo9L3eGb1R6djEvbLTasqTfyz4Z0r1R5zmkNbj4VOJWHLHFjMuIZOSm00Jj-u8fFXwhc&indpubnum=4889224015872296&atk=190a5opqt1d314qd,1,1,0,0,0,0,1,0,0,0,0,0,0,0,0,0,0
Farmington Hills,Kelly Services,US,2014-08-26 18:57:21,355e202172bea463,Engineering Support Analyst,42.502747,-83.40659,MI,http://www.indeed.com/viewjob?jk=355e202172bea463&qd=MxQEkSlos1GEjU62O1KFoRQw54NvLaDNxEJ5HB_yo9KuVRqHRC-nko9OQoZAFJUNezxp6HtNeobRzrUgmyplQHZvQWeZ6mSWHReWR01vCoM&indpubnum=4889224015872296&atk=190a59l731d31108,1,0,0,0,0,0,0,0,0,0,0,0,0,0,0,0,0
Germantown,Montgomery County Public Schools,US,2014-08-26 18:32:56,46d50ae4f3aec098,"Instructional Data Analyst - Lake Seneca ES, 5hrs, deadlines 9/2/14.",39.173077,-77.26923,MD,http://www.indeed.com/viewjob?jk=46d50ae4f3aec098&qd=MxQEkSlos1GEjU62O1KFoRQw54NvLaDNxEJ5HB_yo9JJuNxUwSX-dwk-w0wHXusNOEyi7Ig2BiUiTPzAZ8bhd7u7ogirHcm_QTCvt4Vb73w&indpubnum=4889224015872296&atk=190a525bf1d4i3pr,0,0,0,0,0,0,0,0,0,0,0,0,0,0,1,1,0
Austin,LRS Consulting Services,US,2014-08-26 18:32:25,a1ea64605606b10e,Financial Systems Business Analyst,30.266483,-97.74176,TX,http://www.indeed.com/viewjob?jk=a1ea64605606b10e&qd=MxQEkSlos1GEjU62O1KFoRQw54NvLaDNxEJ5HB_yo9KLdT4cW5TS8hByZED3VJdosY2RNltsQsMe6iuw_4n_rbC6EHumDms3WSQ1vjU-knw&indpubnum=4889224015872296&atk=190a5m5121d713o0,0,1,0,0,0,0,0,0,0,0,0,0,0,0,0,0,0
Rockledge,"Health First Health Plans, Inc",US,2014-08-26 18:31:09,349ee707a4fc1ab6,HFHP Health Data Analyst FT PC13190,28.348902,-80.72527,FL,http://www.indeed.com/viewjob?jk=349ee707a4fc1ab6&qd=MxQEkSlos1GEjU62O1KFoRQw54NvLaDNxEJ5HB_yo9LLBCiPjkU9KpwDU5bpt3OiEL9x_Tpofxobm740digpX6PROgF6AMiHNVDQqgU7yWA&indpubnum=4889224015872296&atk=190a533ju1d521d8,1,0,0,0,0,0,0,0,0,0,0,0,0,0,1,1,0
San Francisco,Zynga,US,2014-08-26 18:30:54,c456c785f422ea79,Marketing Data Analyst,37.774727,-122.41758,CA,http://www.indeed.com/viewjob?jk=c456c785f422ea79&qd=MxQEkSlos1GEjU62O1KFoRQw54NvLaDNxEJ5HB_yo9KhckHN80-uURCmMV-ouodrGp6jym_krcGFaWElJybt0fWjcEjh4gTkJgkG9GZHrA4&indpubnum=4889224015872296&atk=190a50kat1d6h4dq,1,1,0,0,0,0,0,0,0,0,0,0,0,0,0,1,0
Pinehurst,FirstHealth of the Carolinas,US,2014-08-26 18:15:22,7ac81312ad78df50,EMR Specialist,35.195053,-79.46703,NC,http://www.indeed.com/viewjob?jk=7ac81312ad78df50&qd=MxQEkSlos1GEjU62O1KFoRQw54NvLaDNxEJ5HB_yo9I7mSQq4nfhItdpLIhAcQhv5b84G9kPk0ZXIu9oaLz88imlF8mJMlpG_IoKjZ4oz0w&indpubnum=4889224015872296&atk=190a5ftd01d6h15q,1,0,0,0,0,0,0,0,0,0,0,0,0,0,0,1,0
Eglin AFB,Jacobs Technology,US,2014-08-26 18:06:50,e602155dfc19ab43,TEAS/413 FLTS Data Analyst (E2PM),30.458792,-86.54945,FL,http://www.indeed.com/viewjob?jk=e602155dfc19ab43&qd=MxQEkSlos1GEjU62O1KFoRQw54NvLaDNxEJ5HB_yo9LLBCiPjkU9KpwDU5bpt3OiEL9x_Tpofxobm740digpX6PROgF6AMiHNVDQqgU7yWA&indpubnum=4889224015872296&atk=190a533ju1d521d8,1,0,0,0,0,0,0,1,0,0,0,0,0,0,1,1,0
San Francisco,Info. Objects,US,2014-08-26 18:03:30,7f72e37d5c1fd576,Data Analyst,37.774727,-122.41758,CA,http://www.indeed.com/viewjob?jk=7f72e37d5c1fd576&qd=MxQEkSlos1GEjU62O1KFoRQw54NvLaDNxEJ5HB_yo9KhckHN80-uURCmMV-ouodrGp6jym_krcGFaWElJybt0fWjcEjh4gTkJgkG9GZHrA4&indpubnum=4889224015872296&atk=190a50ku21d3h4p6,1,1,0,0,0,0,1,0,0,0,0,0,1,0,1,0,0
Des Plaines,Sologig-company profile,US,2014-08-26 17:57:43,89577a3296410751,Clinical Data Analyst / Database Report Developer,42.032967,-87.87912,IL,http://www.indeed.com/viewjob?jk=89577a3296410751&qd=MxQEkSlos1GEjU62O1KFoRQw54NvLaDNxEJ5HB_yo9Ji_N1lCNco_1Qb6o_wn_YYbUylFMtGSdj3wGw9oPlG2gvTIwPGDPu2at-8N_fRUvs&indpubnum=4889224015872296&atk=190a5512n1d315hi,1,1,0,0,0,0,0,0,0,0,0,0,0,0,0,0,0
Greenwood Village,TEKsystems,US,2014-08-26 17:41:38,a3353952e473a327,Data Analyst,39.615383,-104.95055,CO,http://www.indeed.com/viewjob?jk=a3353952e473a327&qd=MxQEkSlos1GEjU62O1KFoRQw54NvLaDNxEJ5HB_yo9IrKAxaAZAJmmRE2mGDz-1JYyxJ1mIsKdyqzLj5sotZUTgKnFPKLGAcxfyCcq5lBSo&indpubnum=4889224015872296&atk=190a5136g1d421i2,1,1,0,0,0,0,0,0,0,0,0,0,0,0,0,0,0
King of Prussia,Pharmacists Association,US,2014-08-26 17:41:19,bc38ac3b07360b02,"Manager, Clinical Pharmacy Operations",40.087914,-75.39561,PA,http://www.indeed.com/viewjob?jk=bc38ac3b07360b02&qd=MxQEkSlos1GEjU62O1KFoRQw54NvLaDNxEJ5HB_yo9JBy2QeS2uKGSlme_PhyJLGmPkNxTj973naemBASyztlyFv9hTfj3LC5rfMCG2D_sI&indpubnum=4889224015872296&atk=190a5iupn1d6i5k0,0,0,0,0,0,0,0,0,0,0,0,0,0,0,1,1,0
Orem,Jive Communications,US,2014-08-26 17:38:16,cc92628ecb047ca7,Data Analyst,40.296703,-111.69231,UT,http://www.indeed.com/viewjob?jk=cc92628ecb047ca7&qd=MxQEkSlos1GEjU62O1KFoRQw54NvLaDNxEJ5HB_yo9IvdTwfrpjrQh3UBynC5UW02VDAU0HdNEwm1tRfd3aAKdsAHCNf-Wc-vGNAuDGRUCk&indpubnum=4889224015872296&atk=190a5msps1d726vq,1,1,1,0,0,0,1,0,0,0,0,0,1,0,1,1,0
Columbus,Randstad,US,2014-08-26 17:33:25,62a2599b59045b36,DATA ANALYST - ELECTRONIC FILE TESTER,32.475273,-84.9011,GA,http://www.indeed.com/viewjob?jk=62a2599b59045b36&qd=MxQEkSlos1GEjU62O1KFoRQw54NvLaDNxEJ5HB_yo9LNwCtnSNwkyNdqADMRsp0qGPnusQxy_m1-iys11mXFOL9ufMPhjiaFDt3eTpUmMvY&indpubnum=4889224015872296&atk=190a53lte1d4h7a1,1,0,0,0,0,0,0,0,0,0,0,0,0,0,1,1,0
New York,Starpoint Solutions,US,2014-08-26 17:25:24,688610453fae8578,Data Modeler/ Data Analyst,40.71154,-74.00549,NY,http://www.indeed.com/viewjob?jk=688610453fae8578&qd=MxQEkSlos1GEjU62O1KFoRQw54NvLaDNxEJ5HB_yo9KUPDXN_D2AI1pADZ5diohv_MQgRfwuc1MYwhqfMjIoKG8aNGOcT_y2Q5lXCz6jV5s&indpubnum=4889224015872296&atk=190a5f8jq1d3h3fu,1,1,0,0,0,0,0,0,0,0,0,0,0,0,1,1,0
Columbus,Tekmark Global Solutions,US,2014-08-26 17:00:12,bc1997d2cffcea39,DA/QA Analyst,39.95879,-82.99451,OH,http://www.indeed.com/viewjob?jk=bc1997d2cffcea39&qd=MxQEkSlos1GEjU62O1KFoRQw54NvLaDNxEJ5HB_yo9IzKNHijS7kTjt4KmPZaQ54tR1Zys_YS33zV-EIckb4SoCHEdfyMkuNX3qwb0phha4&indpubnum=4889224015872296&atk=190a5h22f1d7234s,1,1,0,0,0,0,1,0,0,1,0,0,0,0,1,1,0
Philadelphia,Community Behavioral Health,US,2014-08-26 16:44:16,6ccb9ae3d46be42f,Financial Analyst,39.947803,-75.15385,PA,http://www.indeed.com/viewjob?jk=6ccb9ae3d46be42f&qd=MxQEkSlos1GEjU62O1KFoRQw54NvLaDNxEJ5HB_yo9JBy2QeS2uKGSlme_PhyJLGmPkNxTj973naemBASyztl1Rvv62K6Aqu0GOYUGhxONg&indpubnum=4889224015872296&atk=190a5ivkg1d326n5,1,1,0,0,0,0,0,0,0,0,0,0,0,0,1,0,0
Westborough,"BJ's Wholesale Club, Inc.",US,2014-08-26 16:42:46,9e50ec424956c08d,Master Data Analyst - Temporary Employee,42.26923,-71.61539,MA,http://www.indeed.com/viewjob?jk=9e50ec424956c08d&qd=MxQEkSlos1GEjU62O1KFoRQw54NvLaDNxEJ5HB_yo9LulBvtWb3NvLPZ9bcwG7w0LKuJy9BzgjjY5yEKN_5Fi05z9lV3dHGAHdatI1XZpNY&indpubnum=4889224015872296&atk=190a592931d2h2ci,1,0,0,0,0,0,0,0,0,0,0,0,0,0,1,1,0
Duluth,Hunter Technical Resources,US,2014-08-26 16:28:31,fa64bc835653e0b0,Data Analyst,34.002747,-84.14286,GA,http://www.indeed.com/viewjob?jk=fa64bc835653e0b0&qd=MxQEkSlos1GEjU62O1KFoRQw54NvLaDNxEJ5HB_yo9LNwCtnSNwkyNdqADMRsp0qGPnusQxy_m1-iys11mXFOK40qiRV4FsQIjhNKSvSW2Q&indpubnum=4889224015872296&atk=190a53ksv1d425ap,1,1,0,1,1,1,0,1,0,0,1,0,0,0,0,1,0
Stratford,Universal Staffing (USSI),US,2014-08-26 16:18:13,77ae3887b534c561,Data Analyst,41.184067,-73.13187,CT,http://www.indeed.com/viewjob?jk=77ae3887b534c561&qd=MxQEkSlos1GEjU62O1KFoRQw54NvLaDNxEJ5HB_yo9Jg8b-VFcmUXvVxg4X47-ltzoEXG8CUr0i7gI9pJSuFItBItJAcVdRaEYV2JlZpIJk&indpubnum=4889224015872296&atk=190a51i3p1d425mq,1,0,0,0,0,0,0,0,0,0,0,0,0,0,1,1,0
Santa Clara,"SIS-Systems Integrations Solutions, Inc.",US,2014-08-26 16:17:30,d7c13b1a077ca963,Data Quality Analyst,37.35165,-121.95055,CA,http://www.indeed.com/viewjob?jk=d7c13b1a077ca963&qd=MxQEkSlos1GEjU62O1KFoRQw54NvLaDNxEJ5HB_yo9KhckHN80-uURCmMV-ouodrGp6jym_krcGFaWElJybt0WUkuSvGjYpgSBvDKVPAUNw&indpubnum=4889224015872296&atk=190a50lf51d5i0vg,0,1,0,0,0,0,0,0,0,0,0,0,0,1,0,0,0
Kansas City,Federal Reserve Bank of Kansas City,US,2014-08-26 16:16:37,10ac074cb77809a1,Sr Data Architect,39.0989,-94.57692,MO,http://www.indeed.com/viewjob?jk=10ac074cb77809a1&qd=MxQEkSlos1GEjU62O1KFoRQw54NvLaDNxEJ5HB_yo9I6B5XPu2Ew-VrIxmUWCmEQD8f7lw2UxdxWldkJhjEz9LNRGBXGFkSvNTJBNUnVOvc&indpubnum=4889224015872296&atk=190a5b8ji1d423ui,1,1,0,0,0,0,1,0,0,0,0,0,0,0,1,1,0
Wheeling,Adecco,US,2014-08-26 16:04:00,8d89be5297e514ca,DATA ANALYST - EXCEL,42.137363,-87.92857,IL,http://www.indeed.com/viewjob?jk=8d89be5297e514ca&qd=MxQEkSlos1GEjU62O1KFoRQw54NvLaDNxEJ5HB_yo9Ji_N1lCNco_1Qb6o_wn_YYbUylFMtGSdj3wGw9oPlG2gvTIwPGDPu2at-8N_fRUvs&indpubnum=4889224015872296&atk=190a5512n1d315hi,1,0,0,0,0,0,0,0,0,0,0,0,0,0,0,1,0
Dallas,Excelsior College,US,2014-08-26 16:01:48,56edbdfaa0e56c2d,Consultant - Outreach Representative,32.782967,-96.8022,TX,http://www.indeed.com/viewjob?jk=56edbdfaa0e56c2d&qd=MxQEkSlos1GEjU62O1KFoRQw54NvLaDNxEJ5HB_yo9KLdT4cW5TS8hByZED3VJdosY2RNltsQsMe6iuw_4n_rbC6EHumDms3WSQ1vjU-knw&indpubnum=4889224015872296&atk=190a5m5ag1d6h29n,1,0,0,0,0,0,0,0,0,0,0,0,0,0,1,1,0
New York,Tiger Information Systems Inc,US,2014-08-26 16:01:44,447d34f1e0285149,Finance Opportunities-Entry Through Midlevel,40.71154,-74.00549,NY,http://www.indeed.com/viewjob?jk=447d34f1e0285149&qd=MxQEkSlos1GEjU62O1KFoRQw54NvLaDNxEJ5HB_yo9KUPDXN_D2AI1pADZ5diohv_MQgRfwuc1MYwhqfMjIoKI2U3QTJPT2CgyG-_EbbzWE&indpubnum=4889224015872296&atk=190a5f9ct1d3h3vh,1,0,0,0,0,0,0,0,0,0,0,0,0,0,1,1,0
Dublin,Tata Consultancy Services,US,2014-08-26 16:01:38,d8f4d2bb7d13a3c7,Data Analyst / MIS report developer,40.0989,-83.10989,OH,http://www.indeed.com/viewjob?jk=d8f4d2bb7d13a3c7&qd=MxQEkSlos1GEjU62O1KFoRQw54NvLaDNxEJ5HB_yo9IzKNHijS7kTjt4KmPZaQ54tR1Zys_YS33zV-EIckb4Sl4v1r9IRXxZu2l8KPe2HsM&indpubnum=4889224015872296&atk=190a5h1j51d6i0q5,1,1,0,0,0,0,1,0,0,0,0,0,0,0,1,0,0
Los Angeles,University of Southern California,US,2014-08-26 15:57:58,e9a4a0be41f7c487,Sr. Data Analyst,34.052197,-118.24176,CA,http://www.indeed.com/viewjob?jk=e9a4a0be41f7c487&qd=MxQEkSlos1GEjU62O1KFoRQw54NvLaDNxEJ5HB_yo9KhckHN80-uURCmMV-ouodrGp6jym_krcGFaWElJybt0WUkuSvGjYpgSBvDKVPAUNw&indpubnum=4889224015872296&atk=190a50l9h1d2i7ii,1,0,0,1,1,0,0,1,0,0,0,0,0,0,1,1,1
Germantown,DataLab USA,US,2014-08-26 15:57:43,0fcfe67ec4653267,Mid-Level Data Analyst,39.173077,-77.26923,MD,http://www.indeed.com/viewjob?jk=0fcfe67ec4653267&qd=MxQEkSlos1GEjU62O1KFoRQw54NvLaDNxEJ5HB_yo9JJuNxUwSX-dwk-w0wHXusNOEyi7Ig2BiUiTPzAZ8bhd7u7ogirHcm_QTCvt4Vb73w&indpubnum=4889224015872296&atk=190a525bf1d4i3pr,1,1,0,0,0,0,1,0,0,0,0,0,0,0,1,0,0
Bethpage,Cablevision Systems Corp.,US,2014-08-26 15:49:41,6aeb28d6f54b59c4,Structured Data Analyst,40.741756,-73.47802,NY,http://www.indeed.com/viewjob?jk=6aeb28d6f54b59c4&qd=MxQEkSlos1GEjU62O1KFoRQw54NvLaDNxEJ5HB_yo9KUPDXN_D2AI1pADZ5diohv_MQgRfwuc1MYwhqfMjIoKG8aNGOcT_y2Q5lXCz6jV5s&indpubnum=4889224015872296&atk=190a5f8ap1d6220c,1,1,0,0,0,0,0,0,0,0,0,0,0,0,1,1,0
Alpharetta,Kforce,US,2014-08-26 15:43:34,7b5052cdd31efe24,Technical Data Analyst,34.07967,-84.1978,GA,http://www.indeed.com/viewjob?jk=7b5052cdd31efe24&qd=MxQEkSlos1GEjU62O1KFoRQw54NvLaDNxEJ5HB_yo9LNwCtnSNwkyNdqADMRsp0qGPnusQxy_m1-iys11mXFOK40qiRV4FsQIjhNKSvSW2Q&indpubnum=4889224015872296&atk=190a53ksv1d425ap,1,0,0,0,0,0,0,0,0,0,0,0,0,0,0,1,0
Chesterfield,Netelligent Corporation,US,2014-08-26 15:02:15,42fcb8316ae640c0,Data Analyst,38.634617,-90.61539,MO,http://www.indeed.com/viewjob?jk=42fcb8316ae640c0&qd=MxQEkSlos1GEjU62O1KFoRQw54NvLaDNxEJ5HB_yo9I6B5XPu2Ew-VrIxmUWCmEQD8f7lw2UxdxWldkJhjEz9LNRGBXGFkSvNTJBNUnVOvc&indpubnum=4889224015872296&atk=190a5b8ji1d423ui,1,0,0,0,0,0,0,0,0,0,0,0,0,0,1,1,0
Seattle,Rangam Consultants Inc.,US,2014-08-26 15:01:22,ec40345f4f8f2e58,Actuarial Analyst,47.60989,-122.32967,WA,http://www.indeed.com/viewjob?jk=ec40345f4f8f2e58&qd=MxQEkSlos1GEjU62O1KFoRQw54NvLaDNxEJ5HB_yo9L3eGb1R6djEvbLTasqTfyz4Z0r1R5zmkNbj4VOJWHLHFjMuIZOSm00Jj-u8fFXwhc&indpubnum=4889224015872296&atk=190a5opqt1d314qd,1,0,0,0,0,0,0,0,0,0,0,0,0,0,1,0,0
Arlington,TEKsystems,US,2014-08-26 14:35:34,f5c3ddf60c7c4841,Data Analyst,38.87912,-77.0989,VA,http://www.indeed.com/viewjob?jk=f5c3ddf60c7c4841&qd=MxQEkSlos1GEjU62O1KFoRQw54NvLaDNxEJ5HB_yo9JJuNxUwSX-dwk-w0wHXusNOEyi7Ig2BiUiTPzAZ8bhd7u7ogirHcm_QTCvt4Vb73w&indpubnum=4889224015872296&atk=190a525ip1d4h5jq,0,0,0,0,0,0,0,0,0,0,0,0,0,0,0,0,0
Los Angeles,ITBMS Inc,US,2014-08-26 14:07:39,337fcadd109d6762,ETL Lead Developer,34.052197,-118.24176,CA,http://www.indeed.com/viewjob?jk=337fcadd109d6762&qd=MxQEkSlos1GEjU62O1KFoRQw54NvLaDNxEJ5HB_yo9KhckHN80-uURCmMV-ouodrGp6jym_krcGFaWElJybt0R-nbn5POercKpcITc6Cemo&indpubnum=4889224015872296&atk=190a50opb1d311td,0,1,0,0,0,0,0,0,0,0,0,0,0,1,0,0,0
Charlotte,Knowledge Momentum,US,2014-08-26 13:59:57,45b70304b8882c03,"Business Analyst - Data analyst (Production Support,Oracle BI/DWH",35.217033,-80.80769,NC,http://www.indeed.com/viewjob?jk=45b70304b8882c03&qd=MxQEkSlos1GEjU62O1KFoRQw54NvLaDNxEJ5HB_yo9I7mSQq4nfhItdpLIhAcQhv5b84G9kPk0ZXIu9oaLz88o3oehVJhkUNPmLxu_ecZro&indpubnum=4889224015872296&atk=190a5funr1d6h7hp,1,1,0,0,0,0,0,0,0,0,0,0,0,0,0,0,0
Tallahassee,KLC Consulting,US,2014-08-26 13:59:56,f7c4a162b2332cad,Data Warehouse Analyst,30.596153,-84.03846,FL,http://www.indeed.com/viewjob?jk=f7c4a162b2332cad&qd=MxQEkSlos1GEjU62O1KFoRQw54NvLaDNxEJ5HB_yo9LLBCiPjkU9KpwDU5bpt3OiEL9x_Tpofxobm740digpXw1Br_vglkmOA6-bPrFfnMU&indpubnum=4889224015872296&atk=190a534f91d6h264,1,1,0,0,0,0,0,0,0,0,0,0,0,0,0,0,0
Richmond,Global Business Consulting Services,US,2014-08-26 13:59:56,1c1bb8f3367dd7d7,Data Analyst,37.576923,-77.53297,VA,http://www.indeed.com/viewjob?jk=1c1bb8f3367dd7d7&qd=MxQEkSlos1GEjU62O1KFoRQw54NvLaDNxEJ5HB_yo9JbLTVuafyVGbPDWAqafXCBIG79JCMi2fuu9D0iIU5fQmVpd6MfZKAeMXYvEjzJSik&indpubnum=4889224015872296&atk=190a5o4qr1d3i1ie,1,1,0,0,0,0,1,0,0,0,0,0,0,1,0,0,0
Charlotte,Terminal Contacts LLC,US,2014-08-26 13:59:54,9dcb7d1b6af20182,Business/Data analyst,35.164837,-80.78571,NC,http://www.indeed.com/viewjob?jk=9dcb7d1b6af20182&qd=MxQEkSlos1GEjU62O1KFoRQw54NvLaDNxEJ5HB_yo9I7mSQq4nfhItdpLIhAcQhv5b84G9kPk0ZXIu9oaLz88lO0Pmg2DxQtLM_69ugIucM&indpubnum=4889224015872296&atk=190a5ftv71d4i46j,0,1,0,0,1,0,0,0,0,0,0,0,0,0,0,0,0
San Francisco,enableIT LLC,US,2014-08-26 13:59:53,3ca1d5b534c3deea,SAS Developer / Programmer Analyst,37.785713,-122.39011,CA,http://www.indeed.com/viewjob?jk=3ca1d5b534c3deea&qd=MxQEkSlos1GEjU62O1KFoRQw54NvLaDNxEJ5HB_yo9KhckHN80-uURCmMV-ouodrGp6jym_krcGFaWElJybt0Q2KvI86SUlUP-xgDbqjt3A&indpubnum=4889224015872296&atk=190a50o231d2h4ub,0,0,0,0,0,0,1,0,0,0,0,0,0,1,0,0,0
New York,"Techlink Systems, Inc.",US,2014-08-26 13:59:53,98d0d262a3a08094,Trading Systems Analyst,40.802197,-73.95055,NY,http://www.indeed.com/viewjob?jk=98d0d262a3a08094&qd=MxQEkSlos1GEjU62O1KFoRQw54NvLaDNxEJ5HB_yo9KUPDXN_D2AI1pADZ5diohv_MQgRfwuc1MYwhqfMjIoKI2U3QTJPT2CgyG-_EbbzWE&indpubnum=4889224015872296&atk=190a5f9sp1d513sc,0,1,0,0,0,0,0,0,0,1,0,0,0,0,1,0,0
Harrisburg,ITBMS Inc.,US,2014-08-26 13:59:53,c97aa6727f3a716d,Oracle Data Analyst,40.26099,-76.87912,PA,http://www.indeed.com/viewjob?jk=c97aa6727f3a716d&qd=MxQEkSlos1GEjU62O1KFoRQw54NvLaDNxEJ5HB_yo9JBy2QeS2uKGSlme_PhyJLGmPkNxTj973naemBASyztlyFv9hTfj3LC5rfMCG2D_sI&indpubnum=4889224015872296&atk=190a5iv431d5h539,1,1,0,0,0,0,0,0,0,0,0,0,0,1,0,1,0
Winston-Salem,Key Risk,US,2014-08-26 13:59:43,85f966f98456eafa,Business Data Analyst - Claims,36.0989,-80.24176,NC,http://www.indeed.com/viewjob?jk=85f966f98456eafa&qd=MxQEkSlos1GEjU62O1KFoRQw54NvLaDNxEJ5HB_yo9I7mSQq4nfhItdpLIhAcQhv5b84G9kPk0ZXIu9oaLz88imlF8mJMlpG_IoKjZ4oz0w&indpubnum=4889224015872296&atk=190a5ftd01d6h15q,1,0,0,0,0,0,0,0,0,0,0,0,0,0,0,0,0
Houston,Pozent,US,2014-08-26 13:59:41,67ba7ba1cb924167,Technical Data Analyst,29.71978,-95.21978,TX,http://www.indeed.com/viewjob?jk=67ba7ba1cb924167&qd=MxQEkSlos1GEjU62O1KFoRQw54NvLaDNxEJ5HB_yo9KLdT4cW5TS8hByZED3VJdosY2RNltsQsMe6iuw_4n_rZAYdr1ef-b4t0-8UADg2uY&indpubnum=4889224015872296&atk=190a5m6on1d426ud,0,0,0,0,0,0,0,0,0,0,0,0,0,0,0,0,0
Sacramento,Your Solution Ware,US,2014-08-26 13:59:40,33d2e3fdadcb09c0,Data Analyst,38.67033,-121.52747,CA,http://www.indeed.com/viewjob?jk=33d2e3fdadcb09c0&qd=MxQEkSlos1GEjU62O1KFoRQw54NvLaDNxEJ5HB_yo9KhckHN80-uURCmMV-ouodrGp6jym_krcGFaWElJybt0WUkuSvGjYpgSBvDKVPAUNw&indpubnum=4889224015872296&atk=190a50m7p1d5h6k4,0,1,0,0,0,0,0,0,0,0,0,0,0,0,0,0,0
Boston,Beth Israel Deaconess Medical Center – BIDMC,US,2014-08-26 13:59:22,0f90d34da4bdc75a,Senior Compliance Auditor,42.357143,-71.05495,MA,http://www.indeed.com/viewjob?jk=0f90d34da4bdc75a&qd=MxQEkSlos1GEjU62O1KFoRQw54NvLaDNxEJ5HB_yo9LulBvtWb3NvLPZ9bcwG7w0LKuJy9BzgjjY5yEKN_5Fi9iAhEiu3uhE4jUKCsfxbNw&indpubnum=4889224015872296&atk=190a592u91d3123b,1,0,0,0,0,0,0,0,0,0,0,0,0,0,1,1,0
Carrollton,McKesson,US,2014-08-26 13:45:50,c6c5cb2bd932da5b,Data Analyst,32.953297,-96.89011,TX,http://www.indeed.com/viewjob?jk=c6c5cb2bd932da5b&qd=MxQEkSlos1GEjU62O1KFoRQw54NvLaDNxEJ5HB_yo9KLdT4cW5TS8hByZED3VJdosY2RNltsQsMe6iuw_4n_rXKIb55PbZuaudVs0tL2puM&indpubnum=4889224015872296&atk=190a5m4nf1d5i1i3,1,1,0,0,0,0,0,0,0,0,0,0,0,0,1,1,0
McLean,PwC,US,2014-08-26 13:36:14,4495ff9e06bc6fe7,CRM Analyst,38.934067,-77.17583,VA,http://www.indeed.com/viewjob?jk=4495ff9e06bc6fe7&qd=MxQEkSlos1GEjU62O1KFoRQw54NvLaDNxEJ5HB_yo9JJuNxUwSX-dwk-w0wHXusNOEyi7Ig2BiUiTPzAZ8bhd7u7ogirHcm_QTCvt4Vb73w&indpubnum=4889224015872296&atk=190a525bf1d4i3pr,1,0,0,0,0,0,0,0,0,0,0,1,0,0,1,0,0
Seattle,PwC,US,2014-08-26 13:36:14,4239ff11f34df82a,CRM Analyst,47.604397,-122.32967,WA,http://www.indeed.com/viewjob?jk=4239ff11f34df82a&qd=MxQEkSlos1GEjU62O1KFoRQw54NvLaDNxEJ5HB_yo9L3eGb1R6djEvbLTasqTfyz4Z0r1R5zmkNbj4VOJWHLHCbDL7FpnI3YjYB-q9YBZvg&indpubnum=4889224015872296&atk=190a5opi11d4i03b,1,0,0,0,0,0,0,0,0,0,0,1,0,0,1,0,0
Boston,PwC,US,2014-08-26 13:36:13,a174074a886613fd,CRM Analyst,42.357143,-71.05495,MA,http://www.indeed.com/viewjob?jk=a174074a886613fd&qd=MxQEkSlos1GEjU62O1KFoRQw54NvLaDNxEJ5HB_yo9LulBvtWb3NvLPZ9bcwG7w0LKuJy9BzgjjY5yEKN_5Fi05z9lV3dHGAHdatI1XZpNY&indpubnum=4889224015872296&atk=190a592231d5i6u2,1,0,0,0,0,0,0,0,0,0,0,1,0,0,1,0,0
New York,PwC,US,2014-08-26 13:36:13,6307d02d12770afe,CRM Analyst,40.71154,-74.00549,NY,http://www.indeed.com/viewjob?jk=6307d02d12770afe&qd=MxQEkSlos1GEjU62O1KFoRQw54NvLaDNxEJ5HB_yo9KUPDXN_D2AI1pADZ5diohv_MQgRfwuc1MYwhqfMjIoKG8aNGOcT_y2Q5lXCz6jV5s&indpubnum=4889224015872296&atk=190a5f8ap1d6220c,1,0,0,0,0,0,0,0,0,0,0,1,0,0,1,0,0
Philadelphia,PwC,US,2014-08-26 13:36:13,e90922a665b8bc9d,CRM Analyst,39.95055,-75.15934,PA,http://www.indeed.com/viewjob?jk=e90922a665b8bc9d&qd=MxQEkSlos1GEjU62O1KFoRQw54NvLaDNxEJ5HB_yo9JBy2QeS2uKGSlme_PhyJLGmPkNxTj973naemBASyztlyFv9hTfj3LC5rfMCG2D_sI&indpubnum=4889224015872296&atk=190a5iu8i1d5i0vf,1,0,0,0,0,0,0,0,0,0,0,1,0,0,1,0,0
Houston,PwC,US,2014-08-26 13:36:13,556ec89c04b0d40e,CRM Analyst,29.760988,-95.36264,TX,http://www.indeed.com/viewjob?jk=556ec89c04b0d40e&qd=MxQEkSlos1GEjU62O1KFoRQw54NvLaDNxEJ5HB_yo9KLdT4cW5TS8hByZED3VJdosY2RNltsQsMe6iuw_4n_rXKIb55PbZuaudVs0tL2puM&indpubnum=4889224015872296&atk=190a5m4nf1d5i1i3,1,0,0,0,0,0,0,0,0,0,0,1,0,0,1,0,0
Northridge,Medtronic,US,2014-08-26 13:27:29,a6750f9c50efcb7f,Sr Market Research Analyst,34.228024,-118.53297,CA,http://www.indeed.com/viewjob?jk=a6750f9c50efcb7f&qd=MxQEkSlos1GEjU62O1KFoRQw54NvLaDNxEJ5HB_yo9KhckHN80-uURCmMV-ouodrGp6jym_krcGFaWElJybt0QxcXH_0LlPhmrOJCaT-DQY&indpubnum=4889224015872296&atk=190a50k581d5i3a0,0,1,0,0,0,0,0,0,0,0,0,0,0,0,1,1,0
Buffalo,Citi,US,2014-08-26 13:15:57,f914d14b5085c3c6,Corporate Treasury – Senior Data Analyst (Buffalo),42.884617,-78.87363,NY,http://www.indeed.com/viewjob?jk=f914d14b5085c3c6&qd=MxQEkSlos1GEjU62O1KFoRQw54NvLaDNxEJ5HB_yo9KUPDXN_D2AI1pADZ5diohv_MQgRfwuc1MYwhqfMjIoKCU9acvvqmGvLTDTvL990bI&indpubnum=4889224015872296&atk=190a5fa4o1d6h7kc,1,0,0,0,0,0,0,0,0,0,0,0,0,0,1,1,0
Hooksett,Cigna,US,2014-08-26 13:14:14,ed2096bb4ed0321f,Business Analysis Sr Spec,43.096153,-71.46154,NH,http://www.indeed.com/viewjob?jk=ed2096bb4ed0321f&qd=MxQEkSlos1GEjU62O1KFoRQw54NvLaDNxEJ5HB_yo9IsOzFI5QgDskIAYB6ZVfaqP5UossZuJ7aM-Kyj6OzRP1Uuxo23-iM0PwROq4leFWk&indpubnum=4889224015872296&atk=190a5dfj21d7274a,1,1,0,0,0,0,0,0,0,0,0,0,0,0,1,1,0
Portland,AppleOne,US,2014-08-26 13:11:00,b9d9f7dedd9a9e1c,Automotive Data Analyst 1,45.53022,-122.63187,OR,http://www.indeed.com/viewjob?jk=b9d9f7dedd9a9e1c&qd=MxQEkSlos1GEjU62O1KFoRQw54NvLaDNxEJ5HB_yo9I3QFonucV-A84ilqDTRFQQezxp6HtNeobRzrUgmyplQLwFGwsg5CKl7Z6WkZb9caQ&indpubnum=4889224015872296&atk=190a5iagi1d4i1f6,1,0,0,0,0,0,0,0,0,0,0,0,0,0,0,1,0
Houston,RGP,US,2014-08-26 13:05:11,5a5490c09b96eb0a,Data Analyst,29.760988,-95.36264,TX,http://www.indeed.com/viewjob?jk=5a5490c09b96eb0a&qd=MxQEkSlos1GEjU62O1KFoRQw54NvLaDNxEJ5HB_yo9KLdT4cW5TS8hByZED3VJdosY2RNltsQsMe6iuw_4n_rbC6EHumDms3WSQ1vjU-knw&indpubnum=4889224015872296&atk=190a5m5121d713o0,1,0,0,0,0,0,0,0,0,0,0,0,0,0,1,0,0
Minnetonka,Insight Global,US,2014-08-26 12:55:24,d88d7534b1cac53f,Data Analyst,44.912086,-93.5,MN,http://www.indeed.com/viewjob?jk=d88d7534b1cac53f&qd=MxQEkSlos1GEjU62O1KFoRQw54NvLaDNxEJ5HB_yo9IQ9Ji1NXswmwoyMQeMSJhNlV9Ci6VerZMrLprUxSeWWvjCqvfcy25zZMOampzS9SU&indpubnum=4889224015872296&atk=190a5a6r21d420e5,0,1,0,0,0,0,1,0,0,0,0,0,0,0,0,0,0
Hershey,Penn State Hershey Medical Center,US,2014-08-26 12:55:09,459202ffd282c0b0,"Healthcare Data Analyst, Business Development, Days (Clinical, MBA, MHA)",40.277473,-76.62637,PA,http://www.indeed.com/viewjob?jk=459202ffd282c0b0&qd=MxQEkSlos1GEjU62O1KFoRQw54NvLaDNxEJ5HB_yo9JBy2QeS2uKGSlme_PhyJLGmPkNxTj973naemBASyztlyFv9hTfj3LC5rfMCG2D_sI&indpubnum=4889224015872296&atk=190a5iu8i1d5i0vf,1,0,0,0,0,0,0,0,0,0,0,0,0,0,1,1,0
Springfield,"Tanager, Inc.",US,2014-08-26 12:38:12,1dfa4ace10570baf,Insider Threat Analyst,38.78846,-77.18681,VA,http://www.indeed.com/viewjob?jk=1dfa4ace10570baf&qd=MxQEkSlos1GEjU62O1KFoRQw54NvLaDNxEJ5HB_yo9JJuNxUwSX-dwk-w0wHXusNOEyi7Ig2BiUiTPzAZ8bhd7u7ogirHcm_QTCvt4Vb73w&indpubnum=4889224015872296&atk=190a525bf1d4i3pr,0,0,0,0,0,0,0,0,0,0,0,0,0,0,1,0,0
New Lenox,Medix Staffing Solutions Inc.,US,2014-08-26 12:21:25,f12f89894447647c,Data Analyst,41.51099,-87.96154,IL,http://www.indeed.com/viewjob?jk=f12f89894447647c&qd=MxQEkSlos1GEjU62O1KFoRQw54NvLaDNxEJ5HB_yo9Ji_N1lCNco_1Qb6o_wn_YYbUylFMtGSdj3wGw9oPlG2k9xuLcrhLJ7tWyVkeDXfBo&indpubnum=4889224015872296&atk=190a550rf1d3i11f,0,0,0,0,0,0,0,0,0,0,0,0,0,0,0,0,0
Harrisburg,Dew Softech,US,2014-08-26 11:45:25,6f877c3c9c124026,Oracle Data Analyst,40.271976,-76.87912,PA,http://www.indeed.com/viewjob?jk=6f877c3c9c124026&qd=MxQEkSlos1GEjU62O1KFoRQw54NvLaDNxEJ5HB_yo9JBy2QeS2uKGSlme_PhyJLGmPkNxTj973naemBASyztl1Rvv62K6Aqu0GOYUGhxONg&indpubnum=4889224015872296&atk=190a5ivsf1d3h646,1,1,0,0,0,0,0,0,0,0,0,0,0,1,0,0,0
Princeton,"ReqRoute,Inc",US,2014-08-26 11:45:23,62d37d8d38f6d074,1016 EMR/ EHR Data Analyst,40.346153,-74.65385,NJ,http://www.indeed.com/viewjob?jk=62d37d8d38f6d074&qd=MxQEkSlos1GEjU62O1KFoRQw54NvLaDNxEJ5HB_yo9IuoauPq75eD-dhOEz8DE_n8gtCm65lPbNJ01qX1cWx2YZjawTUSu96TVCP4nxnY7U&indpubnum=4889224015872296&atk=190a5e3sg1d2h5q9,1,1,0,0,0,0,1,0,0,0,0,0,0,0,0,0,0
Stamford,"ReqRoute,Inc",US,2014-08-26 11:45:22,7c5bfc56f988b02f,1016 Data Modeler,41.052197,-73.53846,CT,http://www.indeed.com/viewjob?jk=7c5bfc56f988b02f&qd=MxQEkSlos1GEjU62O1KFoRQw54NvLaDNxEJ5HB_yo9Jg8b-VFcmUXvVxg4X47-ltzoEXG8CUr0i7gI9pJSuFIl38RCfy9nIMgpJT28BB6Xc&indpubnum=4889224015872296&atk=190a51ikl1d315p8,0,0,0,0,0,0,0,0,0,0,0,0,0,0,0,0,0
McLean,"Mainstreet Technologies, Inc",US,2014-08-26 11:45:21,11c0deab2b3604a5,Business/Data Analyst Sr,38.934067,-77.17583,VA,http://www.indeed.com/viewjob?jk=11c0deab2b3604a5&qd=MxQEkSlos1GEjU62O1KFoRQw54NvLaDNxEJ5HB_yo9JJuNxUwSX-dwk-w0wHXusNOEyi7Ig2BiUiTPzAZ8bhdxZp0YAHoVjVeaQQBYHgJVA&indpubnum=4889224015872296&atk=190a527oe1d4h0ol,1,1,0,0,0,0,0,0,0,0,0,0,0,0,1,0,0
Minneapolis,"ReqRoute,Inc",US,2014-08-26 11:45:19,c79ebea05b95891b,1016 Data Modeler,44.978024,-93.26373,MN,http://www.indeed.com/viewjob?jk=c79ebea05b95891b&qd=MxQEkSlos1GEjU62O1KFoRQw54NvLaDNxEJ5HB_yo9IQ9Ji1NXswmwoyMQeMSJhNlV9Ci6VerZMrLprUxSeWWohgpx6hvbHKvyCs5brfhOw&indpubnum=4889224015872296&atk=190a5a7jc1d2i47n,0,0,0,0,0,0,0,0,0,0,0,0,0,0,0,0,0
Rochester,Compliance Search,US,2014-08-26 11:40:36,dc81cb480b1bd1ab,"Compliance Specialist/Analyst with CooperVision, Inc.",43.153847,-77.61539,NY,http://www.indeed.com/viewjob?jk=dc81cb480b1bd1ab&qd=MxQEkSlos1GEjU62O1KFoRQw54NvLaDNxEJ5HB_yo9KUPDXN_D2AI1pADZ5diohv_MQgRfwuc1MYwhqfMjIoKCU9acvvqmGvLTDTvL990bI&indpubnum=4889224015872296&atk=190a5falo1d3230k,1,0,0,0,0,0,0,0,0,0,0,0,0,0,1,1,0
St. Louis,Unisys,US,2014-08-26 11:07:51,1d21cd815c1d384d,Data Analyst Job,38.645603,-90.32967,MO,http://www.indeed.com/viewjob?jk=1d21cd815c1d384d&qd=MxQEkSlos1GEjU62O1KFoRQw54NvLaDNxEJ5HB_yo9I6B5XPu2Ew-VrIxmUWCmEQD8f7lw2UxdxWldkJhjEz9LNRGBXGFkSvNTJBNUnVOvc&indpubnum=4889224015872296&atk=190a5b8ji1d423ui,0,1,0,0,0,0,1,0,0,0,0,0,0,0,1,1,0
York,Bon-Ton,US,2014-08-26 11:06:36,b3e299c564bd7aa7,Data Analyst,39.96154,-76.72527,PA,http://www.indeed.com/viewjob?jk=b3e299c564bd7aa7&qd=MxQEkSlos1GEjU62O1KFoRQw54NvLaDNxEJ5HB_yo9JBy2QeS2uKGSlme_PhyJLGmPkNxTj973naemBASyztlyFv9hTfj3LC5rfMCG2D_sI&indpubnum=4889224015872296&atk=190a5iu8i1d5i0vf,1,0,0,0,0,0,0,0,0,0,0,0,0,0,0,0,0
Houston,NDT GLobal LLC,US,2014-08-26 10:33:00,c3ff727a6055b7a4,Data Analyst Manager (Pipeline ILI),29.760988,-95.36264,TX,http://www.indeed.com/viewjob?jk=c3ff727a6055b7a4&qd=MxQEkSlos1GEjU62O1KFoRQw54NvLaDNxEJ5HB_yo9KLdT4cW5TS8hByZED3VJdosY2RNltsQsMe6iuw_4n_rV420ArpygQmlUlOpbWW_EY&indpubnum=4889224015872296&atk=190a5m6g11d4i0rs,1,1,0,0,0,0,0,0,0,0,0,0,0,0,1,0,0
Webster,Paychex Inc.,US,2014-08-26 10:28:37,c3a3c932dd00bd01,Data Analyst III,43.21978,-77.46154,NY,http://www.indeed.com/viewjob?jk=c3a3c932dd00bd01&qd=MxQEkSlos1GEjU62O1KFoRQw54NvLaDNxEJ5HB_yo9KUPDXN_D2AI1pADZ5diohv_MQgRfwuc1MYwhqfMjIoKI2U3QTJPT2CgyG-_EbbzWE&indpubnum=4889224015872296&atk=190a5f9401d4i2jj,0,1,0,0,0,0,0,0,0,0,0,0,0,0,1,0,0
Albuquerque,Sandia National Laboratories,US,2014-08-26 09:54:21,9400e69dbd370f8a,R D Surveillance Data Analyst (Senior or Principal),35.082417,-106.64835,NM,http://www.indeed.com/viewjob?jk=9400e69dbd370f8a&qd=MxQEkSlos1GEjU62O1KFoRQw54NvLaDNxEJ5HB_yo9LbRT8G2BqUJpbJSebOCHHoR-cMb1niemHniBsA_Pz47LXPM1Pl3xJMvcYiwiMXZDg&indpubnum=4889224015872296&atk=190a5em3v1d713b8,1,0,0,0,0,0,0,0,0,0,0,0,0,0,0,1,1
Albuquerque,Sandia National Laboratories,US,2014-08-26 09:54:16,be5e2c0239e48c47,R D Surveillance Data Analyst (Entry or Senior),35.082417,-106.64835,NM,http://www.indeed.com/viewjob?jk=be5e2c0239e48c47&qd=MxQEkSlos1GEjU62O1KFoRQw54NvLaDNxEJ5HB_yo9LbRT8G2BqUJpbJSebOCHHoR-cMb1niemHniBsA_Pz47LXPM1Pl3xJMvcYiwiMXZDg&indpubnum=4889224015872296&atk=190a5em3v1d713b8,1,0,0,0,0,0,0,0,0,0,0,0,0,0,1,1,0
Chattanooga,The Babcock & Wilcox Company,US,2014-08-26 09:53:29,902b8f2fe024dc1e,Eddy Current Data Analyst,35.06044,-85.24176,TN,http://www.indeed.com/viewjob?jk=902b8f2fe024dc1e&qd=MxQEkSlos1GEjU62O1KFoRQw54NvLaDNxEJ5HB_yo9Ihp7auWX2VRwgIPe-m7Fu12VDAU0HdNEwm1tRfd3aAKRV8CGuGn_EiEWTKgPHaGQM&indpubnum=4889224015872296&atk=190a5lec01d4i285,0,0,0,0,0,0,0,0,0,0,0,0,0,0,0,0,0
New York,"Integrated Management Resources, LLC",US,2014-08-26 09:10:44,1f10adf9364d0a0d,Sr. Data Analyst-Financial Projections-NYC,40.71154,-74.00549,NY,http://www.indeed.com/viewjob?jk=1f10adf9364d0a0d&qd=MxQEkSlos1GEjU62O1KFoRQw54NvLaDNxEJ5HB_yo9KUPDXN_D2AI1pADZ5diohv_MQgRfwuc1MYwhqfMjIoKI2U3QTJPT2CgyG-_EbbzWE&indpubnum=4889224015872296&atk=190a5f9401d4i2jj,0,1,0,0,0,0,0,0,0,1,0,0,0,0,1,0,0
San Antonio,Cherokee Nation Businesses,US,2014-08-26 09:09:48,d7b3cb39a590ca28,Data Analyst - Internship,29.456043,-98.48901,TX,http://www.indeed.com/viewjob?jk=d7b3cb39a590ca28&qd=MxQEkSlos1GEjU62O1KFoRQw54NvLaDNxEJ5HB_yo9KLdT4cW5TS8hByZED3VJdosY2RNltsQsMe6iuw_4n_rbC6EHumDms3WSQ1vjU-knw&indpubnum=4889224015872296&atk=190a5m5ag1d6h29n,1,0,0,0,0,0,0,0,0,0,0,0,0,0,1,1,0
San Antonio,"WellMed Medical Mgmt, Inc",US,2014-08-26 09:06:59,52e97bba31627086,Senior IT Business Systems Analyst,29.423077,-98.48901,TX,http://www.indeed.com/viewjob?jk=52e97bba31627086&qd=MxQEkSlos1GEjU62O1KFoRQw54NvLaDNxEJ5HB_yo9KLdT4cW5TS8hByZED3VJdosY2RNltsQsMe6iuw_4n_rbC6EHumDms3WSQ1vjU-knw&indpubnum=4889224015872296&atk=190a5m5ag1d6h29n,0,0,0,0,0,0,0,0,0,0,0,0,0,0,1,0,0
Manhattan,DEPARTMENT OF TRANSPORTATION,US,2014-08-26 08:55:43,15333bb21461904e,Planning Data Analyst,40.782967,-73.96154,NY,http://www.indeed.com/viewjob?jk=15333bb21461904e&qd=MxQEkSlos1GEjU62O1KFoRQw54NvLaDNxEJ5HB_yo9KUPDXN_D2AI1pADZ5diohv_MQgRfwuc1MYwhqfMjIoKG8aNGOcT_y2Q5lXCz6jV5s&indpubnum=4889224015872296&atk=190a5f8ap1d6220c,1,0,0,0,0,0,0,0,0,0,0,0,0,0,0,1,0
Atlanta,Manheim,US,2014-08-26 08:25:00,900a86632c90d5a3,Data Analyst,33.747253,-84.38461,GA,http://www.indeed.com/viewjob?jk=900a86632c90d5a3&qd=MxQEkSlos1GEjU62O1KFoRQw54NvLaDNxEJ5HB_yo9LNwCtnSNwkyNdqADMRsp0qGPnusQxy_m1-iys11mXFOK40qiRV4FsQIjhNKSvSW2Q&indpubnum=4889224015872296&atk=190a53kfn1d514e5,1,1,0,0,0,0,0,0,0,1,0,0,0,0,1,0,0
Atlanta,Manheim,US,2014-08-26 08:25:00,accddda6c99a0d3b,CC Operations Lead,33.747253,-84.38461,GA,http://www.indeed.com/viewjob?jk=accddda6c99a0d3b&qd=MxQEkSlos1GEjU62O1KFoRQw54NvLaDNxEJ5HB_yo9LNwCtnSNwkyNdqADMRsp0qGPnusQxy_m1-iys11mXFOK40qiRV4FsQIjhNKSvSW2Q&indpubnum=4889224015872296&atk=190a53kfn1d514e5,1,0,0,0,0,0,0,0,0,0,0,0,0,0,0,0,0
Calhoun,Surya,US,2014-08-26 08:09:00,123921b033f3b6db,Data Analyst,34.494507,-84.92857,GA,http://www.indeed.com/viewjob?jk=123921b033f3b6db&qd=MxQEkSlos1GEjU62O1KFoRQw54NvLaDNxEJ5HB_yo9LNwCtnSNwkyNdqADMRsp0qGPnusQxy_m1-iys11mXFOK40qiRV4FsQIjhNKSvSW2Q&indpubnum=4889224015872296&atk=190a53ksv1d425ap,0,1,0,0,0,0,0,0,0,0,0,0,0,0,0,0,0
Midland,Kelly Services,US,2014-08-26 08:09:00,ab244010943e8f78,MATERIAL DATA ANALYST,43.706043,-84.22527,MI,http://www.indeed.com/viewjob?jk=ab244010943e8f78&qd=MxQEkSlos1GEjU62O1KFoRQw54NvLaDNxEJ5HB_yo9KuVRqHRC-nko9OQoZAFJUNezxp6HtNeobRzrUgmyplQHZvQWeZ6mSWHReWR01vCoM&indpubnum=4889224015872296&atk=190a59l731d31108,1,0,0,0,0,0,0,0,0,0,0,0,0,0,0,1,0
New York,Tory Burch,US,2014-08-26 08:09:00,39202bf6d0f4e3b0,Master Data Specialist,40.71154,-74.00549,NY,http://www.indeed.com/viewjob?jk=39202bf6d0f4e3b0&qd=MxQEkSlos1GEjU62O1KFoRQw54NvLaDNxEJ5HB_yo9KUPDXN_D2AI1pADZ5diohv_MQgRfwuc1MYwhqfMjIoKG8aNGOcT_y2Q5lXCz6jV5s&indpubnum=4889224015872296&atk=190a5f8jq1d3h3fu,0,0,0,0,0,0,0,0,0,1,0,0,0,0,0,1,0
Syracuse,Time Warner Cable,US,2014-08-26 08:03:00,548e68510a39d077,BI Data Analyst Job,43.046703,-76.14286,NY,http://www.indeed.com/viewjob?jk=548e68510a39d077&qd=MxQEkSlos1GEjU62O1KFoRQw54NvLaDNxEJ5HB_yo9KUPDXN_D2AI1pADZ5diohv_MQgRfwuc1MYwhqfMjIoKI2U3QTJPT2CgyG-_EbbzWE&indpubnum=4889224015872296&atk=190a5f9ct1d3h3vh,1,1,1,0,0,0,0,0,0,0,0,0,0,0,0,1,0
Seattle,Starbucks,US,2014-08-26 07:57:00,e2b72012ab55e053,"lead data analyst - CPG, Global Technology - Seattle, WA",47.604397,-122.32967,WA,http://www.indeed.com/viewjob?jk=e2b72012ab55e053&qd=MxQEkSlos1GEjU62O1KFoRQw54NvLaDNxEJ5HB_yo9L3eGb1R6djEvbLTasqTfyz4Z0r1R5zmkNbj4VOJWHLHFjMuIZOSm00Jj-u8fFXwhc&indpubnum=4889224015872296&atk=190a5opqt1d314qd,1,1,0,0,0,0,0,0,0,0,0,0,0,0,0,0,0
Everett,PDS Technical Services,US,2014-08-26 07:40:00,acab9d4169d56436,Systems and Data Analyst,47.978024,-122.1978,WA,http://www.indeed.com/viewjob?jk=acab9d4169d56436&qd=MxQEkSlos1GEjU62O1KFoRQw54NvLaDNxEJ5HB_yo9L3eGb1R6djEvbLTasqTfyz4Z0r1R5zmkNbj4VOJWHLHFjMuIZOSm00Jj-u8fFXwhc&indpubnum=4889224015872296&atk=190a5oqcv1d2h5kv,0,0,0,0,0,0,0,0,0,0,0,0,0,0,1,1,1
Minnetonka,UnitedHealth Group,US,2014-08-26 06:55:00,1fc0d27c2424fb9d,"Senior Medicare Quality Data Analyst - Minnetonka, MN",44.912086,-93.5,MN,http://www.indeed.com/viewjob?jk=1fc0d27c2424fb9d&qd=MxQEkSlos1GEjU62O1KFoRQw54NvLaDNxEJ5HB_yo9IQ9Ji1NXswmwoyMQeMSJhNlV9Ci6VerZMrLprUxSeWWvjCqvfcy25zZMOampzS9SU&indpubnum=4889224015872296&atk=190a5a6jn1d622ls,1,1,0,0,0,0,1,0,0,0,1,1,0,1,0,1,0
Oakland,Kaiser Permanente,US,2014-08-26 06:54:00,3287a34e01ffb12f,"Consultant - Customer Analytics & Reporting SAS/Cognos (Oakland, CA) ( Job Number: 270883 )",37.802197,-122.26923,CA,http://www.indeed.com/viewjob?jk=3287a34e01ffb12f&qd=MxQEkSlos1GEjU62O1KFoRQw54NvLaDNxEJ5HB_yo9KhckHN80-uURCmMV-ouodrGp6jym_krcGFaWElJybt0VvQoctGRKtL4zw7Oy2YkBE&indpubnum=4889224015872296&atk=190a50ms91d5279j,1,1,0,0,1,0,1,0,0,0,0,0,0,0,1,1,0
Centennial,McGraw Hill Financial,US,2014-08-26 06:54:00,9c1982e6f52b53dc,"Data Analyst, Data Strategy Operations (DSO) - Ratings Content (S&P Ratings)",39.576923,-104.87363,CO,http://www.indeed.com/viewjob?jk=9c1982e6f52b53dc&qd=MxQEkSlos1GEjU62O1KFoRQw54NvLaDNxEJ5HB_yo9IrKAxaAZAJmmRE2mGDz-1JYyxJ1mIsKdyqzLj5sotZUTgKnFPKLGAcxfyCcq5lBSo&indpubnum=4889224015872296&atk=190a513hs1d715vc,1,0,0,0,0,0,0,0,0,0,0,0,0,0,1,0,0
Palm Beach Gardens,Biomet,US,2014-08-26 06:54:00,e53637979ce394fe,Post Market Regulatory Engineer,26.821428,-80.13736,FL,http://www.indeed.com/viewjob?jk=e53637979ce394fe&qd=MxQEkSlos1GEjU62O1KFoRQw54NvLaDNxEJ5HB_yo9LLBCiPjkU9KpwDU5bpt3OiEL9x_Tpofxobm740digpX6PROgF6AMiHNVDQqgU7yWA&indpubnum=4889224015872296&atk=190a533ju1d521d8,0,0,0,0,0,0,0,0,0,0,0,0,0,0,1,0,0
Charlotte,Kforce,US,2014-08-26 06:54:00,eec1656e2c4f8ae5,Senior Data Analyst,35.31868,-80.73627,NC,http://www.indeed.com/viewjob?jk=eec1656e2c4f8ae5&qd=MxQEkSlos1GEjU62O1KFoRQw54NvLaDNxEJ5HB_yo9I7mSQq4nfhItdpLIhAcQhv5b84G9kPk0ZXIu9oaLz88lO0Pmg2DxQtLM_69ugIucM&indpubnum=4889224015872296&atk=190a5ftnc1d414kn,0,0,0,0,0,0,0,0,0,0,0,0,0,0,0,0,0
Purchase,Arrow Electronics,US,2014-08-26 06:53:00,b2c5c727ba641710,Data Analyst,41.04121,-73.71429,NY,http://www.indeed.com/viewjob?jk=b2c5c727ba641710&qd=MxQEkSlos1GEjU62O1KFoRQw54NvLaDNxEJ5HB_yo9KUPDXN_D2AI1pADZ5diohv_MQgRfwuc1MYwhqfMjIoKG8aNGOcT_y2Q5lXCz6jV5s&indpubnum=4889224015872296&atk=190a5f8ap1d6220c,1,0,0,0,0,0,0,0,0,0,0,0,0,0,0,1,0
Columbus,Robert Half Finance & Accounting,US,2014-08-26 06:53:00,b2c6236791e031c6,Columbus based Co. Seeks Strong Strategic Data Analyst,40.002747,-82.92857,OH,http://www.indeed.com/viewjob?jk=b2c6236791e031c6&qd=MxQEkSlos1GEjU62O1KFoRQw54NvLaDNxEJ5HB_yo9IzKNHijS7kTjt4KmPZaQ54tR1Zys_YS33zV-EIckb4Sl4v1r9IRXxZu2l8KPe2HsM&indpubnum=4889224015872296&atk=190a5h18s1d526ga,1,0,0,0,0,0,0,0,0,0,0,0,0,0,1,1,0
Columbus,JPMorgan Chase,US,2014-08-26 06:53:00,b2c378f57ce8f629,Data Analyst - IRM,39.95879,-82.99451,OH,http://www.indeed.com/viewjob?jk=b2c378f57ce8f629&qd=MxQEkSlos1GEjU62O1KFoRQw54NvLaDNxEJ5HB_yo9IzKNHijS7kTjt4KmPZaQ54tR1Zys_YS33zV-EIckb4Sl4v1r9IRXxZu2l8KPe2HsM&indpubnum=4889224015872296&atk=190a5h18s1d526ga,1,0,0,0,0,0,0,0,0,0,0,0,0,0,1,0,0
Houston,BHP Billiton,US,2014-08-26 06:49:00,5fbf4e8570b426b5,Master Data Analyst,29.760988,-95.36264,TX,http://www.indeed.com/viewjob?jk=5fbf4e8570b426b5&qd=MxQEkSlos1GEjU62O1KFoRQw54NvLaDNxEJ5HB_yo9KLdT4cW5TS8hByZED3VJdosY2RNltsQsMe6iuw_4n_rXKIb55PbZuaudVs0tL2puM&indpubnum=4889224015872296&atk=190a5m4nf1d5i1i3,0,0,0,0,0,0,0,0,0,0,0,0,0,0,1,1,0
Birmingham,The CSI Companies,US,2014-08-26 06:31:28,92018a11a32875d6,Financial Banking - Data Analyst,33.51923,-86.8022,AL,http://www.indeed.com/viewjob?jk=92018a11a32875d6&qd=MxQEkSlos1GEjU62O1KFoRQw54NvLaDNxEJ5HB_yo9Ioj4rjQXNWDyyItk64RFYra6ZYVqn8bmf15A_Ex_VofM80JOJZv0YQuQqwX3gQO0c&indpubnum=4889224015872296&atk=190a4v5571d5234h,1,1,0,0,0,0,0,0,0,0,0,0,0,0,0,0,0
Seattle,iStaff,US,2014-08-26 06:30:48,bb0631eea3439e91,T-SQL Data Analyst,47.604397,-122.32967,WA,http://www.indeed.com/viewjob?jk=bb0631eea3439e91&qd=MxQEkSlos1GEjU62O1KFoRQw54NvLaDNxEJ5HB_yo9L3eGb1R6djEvbLTasqTfyz4Z0r1R5zmkNbj4VOJWHLHFjMuIZOSm00Jj-u8fFXwhc&indpubnum=4889224015872296&atk=190a5oqcv1d2h5kv,0,1,0,0,0,0,0,0,0,0,0,0,0,0,0,1,0
Herndon,BCforward,US,2014-08-26 06:30:08,a0277e0da950751a,"Data Analyst/Modeler - Herndon, VA",38.967033,-77.38461,VA,http://www.indeed.com/viewjob?jk=a0277e0da950751a&qd=MxQEkSlos1GEjU62O1KFoRQw54NvLaDNxEJ5HB_yo9JJuNxUwSX-dwk-w0wHXusNOEyi7Ig2BiUiTPzAZ8bhd7u7ogirHcm_QTCvt4Vb73w&indpubnum=4889224015872296&atk=190a525q01d425rv,1,0,0,0,1,1,0,0,0,0,1,0,0,0,1,1,0
Los Angeles,MarketShare,US,2014-08-26 06:24:06,3605a11fff8d3302,Associate Data Analyst,34.052197,-118.24176,CA,http://www.indeed.com/viewjob?jk=3605a11fff8d3302&qd=MxQEkSlos1GEjU62O1KFoRQw54NvLaDNxEJ5HB_yo9KhckHN80-uURCmMV-ouodrGp6jym_krcGFaWElJybt0QxcXH_0LlPhmrOJCaT-DQY&indpubnum=4889224015872296&atk=190a50k581d5i3a0,1,1,0,1,0,0,1,0,0,1,0,0,1,0,1,0,0
Austin,21CT,US,2014-08-26 06:15:22,0133b9e985e26516,Lead Data Analyst (SQL),30.266483,-97.74176,TX,http://www.indeed.com/viewjob?jk=0133b9e985e26516&qd=MxQEkSlos1GEjU62O1KFoRQw54NvLaDNxEJ5HB_yo9KLdT4cW5TS8hByZED3VJdosY2RNltsQsMe6iuw_4n_rbC6EHumDms3WSQ1vjU-knw&indpubnum=4889224015872296&atk=190a5m5121d713o0,1,1,0,1,1,0,1,1,1,0,0,0,1,0,1,1,0
San Antonio,UnitedHealth Group,US,2014-08-26 06:08:51,74762e1034802629,"Senior IT Business Systems Analyst - San Antonio, TX",29.423077,-98.48901,TX,http://www.indeed.com/viewjob?jk=74762e1034802629&qd=MxQEkSlos1GEjU62O1KFoRQw54NvLaDNxEJ5HB_yo9KLdT4cW5TS8hByZED3VJdosY2RNltsQsMe6iuw_4n_rV420ArpygQmlUlOpbWW_EY&indpubnum=4889224015872296&atk=190a5m5tg1d4h3gs,0,0,0,0,0,0,0,0,0,0,0,0,0,0,1,0,0
Atlanta,"Safe-Guard Products International, LLC",US,2014-08-26 06:08:23,dc12eb595b45e79c,Reporting/Data Analyst,33.747253,-84.38461,GA,http://www.indeed.com/viewjob?jk=dc12eb595b45e79c&qd=MxQEkSlos1GEjU62O1KFoRQw54NvLaDNxEJ5HB_yo9LNwCtnSNwkyNdqADMRsp0qGPnusQxy_m1-iys11mXFOK40qiRV4FsQIjhNKSvSW2Q&indpubnum=4889224015872296&atk=190a53kfn1d514e5,0,1,0,0,0,0,0,0,0,0,0,0,0,0,1,0,0
Atlanta,Acentia,US,2014-08-26 05:52:36,dccb2c27dcc051ea,Business Systems Analyst,33.747253,-84.38461,GA,http://www.indeed.com/viewjob?jk=dccb2c27dcc051ea&qd=MxQEkSlos1GEjU62O1KFoRQw54NvLaDNxEJ5HB_yo9LNwCtnSNwkyNdqADMRsp0qGPnusQxy_m1-iys11mXFOK40qiRV4FsQIjhNKSvSW2Q&indpubnum=4889224015872296&atk=190a53km11d4h3ie,1,0,0,0,0,0,0,0,0,0,0,0,0,0,1,1,0
New Castle,Christiana Care,US,2014-08-26 05:45:00,dfe7b1066ee62147,E I M Data Analyst Job,39.65934,-75.56593,DE,http://www.indeed.com/viewjob?jk=dfe7b1066ee62147&qd=MxQEkSlos1GEjU62O1KFoRQw54NvLaDNxEJ5HB_yo9LKNOcu3U099ixxgGdrAUPQ5NoWg3ITxLlZXZesqFUapzCt6aUUcF3yHT5MW2Cvh4g&indpubnum=4889224015872296&atk=190a52l6o1d5i3nd,1,1,0,0,0,0,0,0,0,0,0,0,0,0,1,0,0
Southfield,Henry Ford Health System,US,2014-08-26 05:45:00,bdb9363f5a690654,ETL Data Stage Developer Job,42.472527,-83.21978,MI,http://www.indeed.com/viewjob?jk=bdb9363f5a690654&qd=MxQEkSlos1GEjU62O1KFoRQw54NvLaDNxEJ5HB_yo9KuVRqHRC-nko9OQoZAFJUNezxp6HtNeobRzrUgmyplQNFupWi6RM39moYPjwmsanY&indpubnum=4889224015872296&atk=190a59lec1d32184,0,0,0,0,0,0,0,0,0,0,0,0,0,0,1,0,0
Brooklyn,New York City Department of Education,US,2014-08-26 05:43:51,c8053787c6713bd9,Data Analyst – After School Programs and Partnerships,40.64835,-73.94505,NY,http://www.indeed.com/viewjob?jk=c8053787c6713bd9&qd=MxQEkSlos1GEjU62O1KFoRQw54NvLaDNxEJ5HB_yo9KUPDXN_D2AI1pADZ5diohv_MQgRfwuc1MYwhqfMjIoKG8aNGOcT_y2Q5lXCz6jV5s&indpubnum=4889224015872296&atk=190a5f8ap1d6220c,1,1,0,0,0,0,1,0,0,0,0,0,0,0,0,0,0
Baltimore,UMMC,US,2014-08-26 05:39:08,13a20d6075c7a657,Transplant Data Analyst Job,39.28846,-76.60989,MD,http://www.indeed.com/viewjob?jk=13a20d6075c7a657&qd=MxQEkSlos1GEjU62O1KFoRQw54NvLaDNxEJ5HB_yo9K1R6c7KtPNAewnuw3MsymeAnBqQq8iMix3ef86fizcMo3SbaEHtcalZsekxUIOO5M&indpubnum=4889224015872296&atk=190a58gph1d413dt,1,1,0,0,0,0,0,0,0,0,0,0,0,0,1,1,0
San Jose,Robert Half Technology,US,2014-08-26 05:38:05,98d3af11d4f13f01,Technical Security Administration Support,37.332417,-121.89011,CA,http://www.indeed.com/viewjob?jk=98d3af11d4f13f01&qd=MxQEkSlos1GEjU62O1KFoRQw54NvLaDNxEJ5HB_yo9KhckHN80-uURCmMV-ouodrGp6jym_krcGFaWElJybt0WUkuSvGjYpgSBvDKVPAUNw&indpubnum=4889224015872296&atk=190a50l9h1d2i7ii,1,1,0,0,0,0,0,0,0,1,0,0,0,0,0,0,0
Irvine,AT-Tech,US,2014-08-26 04:59:22,4d052dc2e65b5560,IT Data Analyst -,33.68132,-117.82967,CA,http://www.indeed.com/viewjob?jk=4d052dc2e65b5560&qd=MxQEkSlos1GEjU62O1KFoRQw54NvLaDNxEJ5HB_yo9KhckHN80-uURCmMV-ouodrGp6jym_krcGFaWElJybt0WUkuSvGjYpgSBvDKVPAUNw&indpubnum=4889224015872296&atk=190a50l9h1d2i7ii,1,1,0,0,0,0,0,0,0,0,0,0,0,0,0,1,0
Kansas City,Accountemps,US,2014-08-26 04:46:04,adcded203bfe1a70,Data Analyst,39.123627,-94.53297,MO,http://www.indeed.com/viewjob?jk=adcded203bfe1a70&qd=MxQEkSlos1GEjU62O1KFoRQw54NvLaDNxEJ5HB_yo9I6B5XPu2Ew-VrIxmUWCmEQD8f7lw2UxdxWldkJhjEz9LNRGBXGFkSvNTJBNUnVOvc&indpubnum=4889224015872296&atk=190a5b8ji1d423ui,1,0,0,0,0,0,1,0,0,0,0,0,0,0,0,0,0
Glen Allen,Accountemps,US,2014-08-26 04:46:04,7640ec2e51b58316,Entry Level Data Analyst,37.65934,-77.52747,VA,http://www.indeed.com/viewjob?jk=7640ec2e51b58316&qd=MxQEkSlos1GEjU62O1KFoRQw54NvLaDNxEJ5HB_yo9JbLTVuafyVGbPDWAqafXCBIG79JCMi2fuu9D0iIU5fQmVpd6MfZKAeMXYvEjzJSik&indpubnum=4889224015872296&atk=190a5o49b1d2h2mi,1,0,0,0,0,0,0,0,0,0,0,0,0,0,0,0,0
San Francisco,Pacific Gas and Electric,US,2014-08-26 04:16:51,e98ef7403dc0ff18,"Electrical Field Safety Specialist, Sr.",37.79121,-122.39561,CA,http://www.indeed.com/viewjob?jk=e98ef7403dc0ff18&qd=MxQEkSlos1GEjU62O1KFoRQw54NvLaDNxEJ5HB_yo9KhckHN80-uURCmMV-ouodrGp6jym_krcGFaWElJybt0WUkuSvGjYpgSBvDKVPAUNw&indpubnum=4889224015872296&atk=190a50lf51d5i0vg,0,0,0,0,0,0,0,0,0,0,0,0,0,0,1,0,0
San Francisco,Zephyr Health,US,2014-08-26 04:03:22,a94eee8d98891827,Data Analyst,37.79121,-122.39561,CA,http://www.indeed.com/viewjob?jk=a94eee8d98891827&qd=MxQEkSlos1GEjU62O1KFoRQw54NvLaDNxEJ5HB_yo9KhckHN80-uURCmMV-ouodrGp6jym_krcGFaWElJybt0QxcXH_0LlPhmrOJCaT-DQY&indpubnum=4889224015872296&atk=190a50k581d5i3a0,1,1,0,1,1,0,0,0,1,1,0,0,0,0,1,1,0
Mountain View,Intuit,US,2014-08-26 04:02:34,2550824a7bcc56d2,Sr. Technical Data Analyst,37.392857,-122.07143,CA,http://www.indeed.com/viewjob?jk=2550824a7bcc56d2&qd=MxQEkSlos1GEjU62O1KFoRQw54NvLaDNxEJ5HB_yo9KhckHN80-uURCmMV-ouodrGp6jym_krcGFaWElJybt0fWjcEjh4gTkJgkG9GZHrA4&indpubnum=4889224015872296&atk=190a50kgi1d517mg,0,0,0,0,0,0,0,0,0,0,0,0,0,0,0,0,0
Vancouver,CLHR-SW WA BEHAVIORAL HEALTH,US,2014-08-26 03:58:50,c23097deb050bb21,IS & IT Data Analyst,45.71154,-122.59341,WA,http://www.indeed.com/viewjob?jk=c23097deb050bb21&qd=MxQEkSlos1GEjU62O1KFoRQw54NvLaDNxEJ5HB_yo9L3eGb1R6djEvbLTasqTfyz4Z0r1R5zmkNbj4VOJWHLHFjMuIZOSm00Jj-u8fFXwhc&indpubnum=4889224015872296&atk=190a5oq3v1d526ee,0,0,0,0,0,0,0,0,0,0,0,0,0,0,0,0,0
Atlanta,Axius Technologies Inc,US,2014-08-26 03:37:48,87ad48166e3eb909,Senior Data Analyst - contract,33.747253,-84.38461,GA,http://www.indeed.com/viewjob?jk=87ad48166e3eb909&qd=MxQEkSlos1GEjU62O1KFoRQw54NvLaDNxEJ5HB_yo9LNwCtnSNwkyNdqADMRsp0qGPnusQxy_m1-iys11mXFOK40qiRV4FsQIjhNKSvSW2Q&indpubnum=4889224015872296&atk=190a53km11d4h3ie,0,1,0,0,0,0,0,0,0,0,0,0,0,0,0,0,0
Minneapolis,Axius Technologies Inc,US,2014-08-26 03:37:48,2d2cb4655070c261,OLTP Data Modeler - Contract,44.978024,-93.26373,MN,http://www.indeed.com/viewjob?jk=2d2cb4655070c261&qd=MxQEkSlos1GEjU62O1KFoRQw54NvLaDNxEJ5HB_yo9IQ9Ji1NXswmwoyMQeMSJhNlV9Ci6VerZMrLprUxSeWWvjCqvfcy25zZMOampzS9SU&indpubnum=4889224015872296&atk=190a5a6jn1d622ls,0,1,0,0,0,0,0,0,0,0,0,0,0,0,0,0,0
Atlanta,Axius Technologies Inc,US,2014-08-26 03:37:46,bd10d1a098437baf,Data Analyst - contract,33.747253,-84.38461,GA,http://www.indeed.com/viewjob?jk=bd10d1a098437baf&qd=MxQEkSlos1GEjU62O1KFoRQw54NvLaDNxEJ5HB_yo9LNwCtnSNwkyNdqADMRsp0qGPnusQxy_m1-iys11mXFOK40qiRV4FsQIjhNKSvSW2Q&indpubnum=4889224015872296&atk=190a53kfn1d514e5,0,0,0,1,1,0,0,0,0,0,1,0,0,0,0,0,0
Lansdale,Techiva Inc,US,2014-08-26 03:14:04,f0248ee172de784e,Sr Data Analyst SQL Must,40.23901,-75.28022,PA,http://www.indeed.com/viewjob?jk=f0248ee172de784e&qd=MxQEkSlos1GEjU62O1KFoRQw54NvLaDNxEJ5HB_yo9JBy2QeS2uKGSlme_PhyJLGmPkNxTj973naemBASyztlyFv9hTfj3LC5rfMCG2D_sI&indpubnum=4889224015872296&atk=190a5iupn1d6i5k0,1,1,0,0,0,0,1,0,0,0,0,0,0,0,1,1,0
San Diego,BrightScope,US,2014-08-26 03:13:56,31c359ee8b457795,Data Analyst,32.714287,-117.15385,CA,http://www.indeed.com/viewjob?jk=31c359ee8b457795&qd=MxQEkSlos1GEjU62O1KFoRQw54NvLaDNxEJ5HB_yo9KhckHN80-uURCmMV-ouodrGp6jym_krcGFaWElJybt0QxcXH_0LlPhmrOJCaT-DQY&indpubnum=4889224015872296&atk=190a50k581d5i3a0,1,1,1,1,0,0,0,0,0,0,0,0,0,0,1,0,0
Washington,Acumen Solutions,US,2014-08-26 03:13:56,85478cc8d65d5ad9,Jr Data Analyst - ETL Developer,38.892857,-77.03297,DC,http://www.indeed.com/viewjob?jk=85478cc8d65d5ad9&qd=MxQEkSlos1GEjU62O1KFoRQw54NvLaDNxEJ5HB_yo9JJuNxUwSX-dwk-w0wHXusNOEyi7Ig2BiUiTPzAZ8bhd8XvaWNpF7D8k6h9M4MbtTs&indpubnum=4889224015872296&atk=190a526a31d626vj,1,1,0,0,0,0,0,0,0,0,0,0,0,0,1,1,0
San Antonio,"WellMed Medical Mgmt, Inc",US,2014-08-26 03:05:24,5a590674a3d2982f,Senior Data Analyst - WellMed,29.423077,-98.48901,TX,http://www.indeed.com/viewjob?jk=5a590674a3d2982f&qd=MxQEkSlos1GEjU62O1KFoRQw54NvLaDNxEJ5HB_yo9KLdT4cW5TS8hByZED3VJdosY2RNltsQsMe6iuw_4n_rbC6EHumDms3WSQ1vjU-knw&indpubnum=4889224015872296&atk=190a5m5ag1d6h29n,1,1,0,0,0,0,0,0,0,0,0,0,0,0,1,1,0
Burbank,AT-Tech,US,2014-08-26 02:56:41,9fd41fc01483934d,Data Analyst -,34.17033,-118.34066,CA,http://www.indeed.com/viewjob?jk=9fd41fc01483934d&qd=MxQEkSlos1GEjU62O1KFoRQw54NvLaDNxEJ5HB_yo9KhckHN80-uURCmMV-ouodrGp6jym_krcGFaWElJybt0WUkuSvGjYpgSBvDKVPAUNw&indpubnum=4889224015872296&atk=190a50lf51d5i0vg,1,1,0,0,0,0,0,0,0,0,0,0,0,0,0,0,0
Alpharetta,Apex Systems Inc,US,2014-08-26 02:51:08,eaad220c60ec9308,Data Analyst,34.074177,-84.29121,GA,http://www.indeed.com/viewjob?jk=eaad220c60ec9308&qd=MxQEkSlos1GEjU62O1KFoRQw54NvLaDNxEJ5HB_yo9LNwCtnSNwkyNdqADMRsp0qGPnusQxy_m1-iys11mXFOL9ufMPhjiaFDt3eTpUmMvY&indpubnum=4889224015872296&atk=190a53lte1d4h7a1,1,0,0,0,0,0,0,0,0,0,0,0,0,0,0,1,0
Seattle,Prime Team Partners Inc.,US,2014-08-26 02:49:38,dbde54c5dc736b8a,Management Consultant,47.604397,-122.32967,WA,http://www.indeed.com/viewjob?jk=dbde54c5dc736b8a&qd=MxQEkSlos1GEjU62O1KFoRQw54NvLaDNxEJ5HB_yo9L3eGb1R6djEvbLTasqTfyz4Z0r1R5zmkNbj4VOJWHLHFjMuIZOSm00Jj-u8fFXwhc&indpubnum=4889224015872296&atk=190a5oq3v1d526ee,1,1,0,0,0,0,0,0,0,0,0,0,0,0,1,0,0
Palo Alto,Computer Futures,US,2014-08-26 02:42:53,db56b2e512a75a1f,Data Analyst/ Statistician,37.43956,-122.14286,CA,http://www.indeed.com/viewjob?jk=db56b2e512a75a1f&qd=MxQEkSlos1GEjU62O1KFoRQw54NvLaDNxEJ5HB_yo9KhckHN80-uURCmMV-ouodrGp6jym_krcGFaWElJybt0R-nbn5POercKpcITc6Cemo&indpubnum=4889224015872296&atk=190a50oil1d524u5,0,1,0,1,1,1,1,1,0,1,0,0,1,0,0,1,1
Franklin,Celerity,US,2014-08-26 02:23:38,36085277c58c5c15,Data Analyst,35.925823,-86.8022,TN,http://www.indeed.com/viewjob?jk=36085277c58c5c15&qd=MxQEkSlos1GEjU62O1KFoRQw54NvLaDNxEJ5HB_yo9Ihp7auWX2VRwgIPe-m7Fu12VDAU0HdNEwm1tRfd3aAKRV8CGuGn_EiEWTKgPHaGQM&indpubnum=4889224015872296&atk=190a5lec01d4i285,0,1,0,0,0,0,0,0,0,0,0,0,0,0,1,0,0
Waltham,The Bowdoin Group,US,2014-08-26 02:22:37,9a37053dff2f59ff,Data Analyst in Finance Softw - great career growth opportunity,42.376373,-71.23077,MA,http://www.indeed.com/viewjob?jk=9a37053dff2f59ff&qd=MxQEkSlos1GEjU62O1KFoRQw54NvLaDNxEJ5HB_yo9LulBvtWb3NvLPZ9bcwG7w0LKuJy9BzgjjY5yEKN_5Fi1ozRFa0NjAL-TOceiUdhKA&indpubnum=4889224015872296&atk=190a593r81d4277p,1,1,0,0,0,0,0,0,0,0,0,0,0,0,0,0,0
Boston,Atlantic Associates,US,2014-08-26 02:21:11,8536aaab96250879,Senior Data Analyst,42.346153,-71.07143,MA,http://www.indeed.com/viewjob?jk=8536aaab96250879&qd=MxQEkSlos1GEjU62O1KFoRQw54NvLaDNxEJ5HB_yo9LulBvtWb3NvLPZ9bcwG7w0LKuJy9BzgjjY5yEKN_5Fi9iAhEiu3uhE4jUKCsfxbNw&indpubnum=4889224015872296&atk=190a592u91d3123b,1,0,0,0,0,0,0,0,0,0,0,0,0,0,0,1,0
Houston,DIVERSANT LLC,US,2014-08-26 02:20:23,a7989d183bde30e6,"Data Analyst Needed in Houston, TX",29.755495,-95.35714,TX,http://www.indeed.com/viewjob?jk=a7989d183bde30e6&qd=MxQEkSlos1GEjU62O1KFoRQw54NvLaDNxEJ5HB_yo9KLdT4cW5TS8hByZED3VJdosY2RNltsQsMe6iuw_4n_rfEslJ5WPRfZovq_UqJBTaU&indpubnum=4889224015872296&atk=190a5maa01d5137b,1,1,0,0,0,0,0,0,0,0,0,0,0,1,1,1,0
Washington,Princeton Information Ltd,US,2014-08-26 02:19:19,177ff5bb6aec8c52,Data Analyst,38.93956,-77.08791,DC,http://www.indeed.com/viewjob?jk=177ff5bb6aec8c52&qd=MxQEkSlos1GEjU62O1KFoRQw54NvLaDNxEJ5HB_yo9JJuNxUwSX-dwk-w0wHXusNOEyi7Ig2BiUiTPzAZ8bhdxZp0YAHoVjVeaQQBYHgJVA&indpubnum=4889224015872296&atk=190a527bf1d3i19n,0,0,0,0,0,0,0,0,0,0,0,0,0,0,0,1,0
Sacramento,Sutter Health,US,2014-08-26 01:39:20,1742aa3ed33d8fa0,Senior Data Analyst,38.57967,-121.48901,CA,http://www.indeed.com/viewjob?jk=1742aa3ed33d8fa0&qd=MxQEkSlos1GEjU62O1KFoRQw54NvLaDNxEJ5HB_yo9KhckHN80-uURCmMV-ouodrGp6jym_krcGFaWElJybt0fWjcEjh4gTkJgkG9GZHrA4&indpubnum=4889224015872296&atk=190a50knm1d4i0gs,1,1,0,0,0,0,0,0,0,0,0,0,0,0,1,1,0
Oceanside,Tri-City Medical Center,US,2014-08-26 01:16:28,04e8c253172988fb,DATA ANALYST CV,33.195053,-117.37912,CA,http://www.indeed.com/viewjob?jk=04e8c253172988fb&qd=MxQEkSlos1GEjU62O1KFoRQw54NvLaDNxEJ5HB_yo9KhckHN80-uURCmMV-ouodrGp6jym_krcGFaWElJybt0QxcXH_0LlPhmrOJCaT-DQY&indpubnum=4889224015872296&atk=190a50k581d5i3a0,1,0,0,0,0,0,0,0,0,0,0,0,0,0,1,1,0
Reston,Modis,US,2014-08-26 00:45:46,fafb4d73909327f3,Sr. Data Analyst Job in Reston,38.967033,-77.34066,VA,http://www.indeed.com/viewjob?jk=fafb4d73909327f3&qd=MxQEkSlos1GEjU62O1KFoRQw54NvLaDNxEJ5HB_yo9JJuNxUwSX-dwk-w0wHXusNOEyi7Ig2BiUiTPzAZ8bhd8XvaWNpF7D8k6h9M4MbtTs&indpubnum=4889224015872296&atk=190a526a31d626vj,1,1,0,0,0,0,1,0,0,0,0,0,0,0,1,1,0
Washington,Alter Modus International corp.,US,2014-08-26 00:28:16,99d4e56fb7208c67,Data Management Analyst,38.903847,-77.03846,DC,http://www.indeed.com/viewjob?jk=99d4e56fb7208c67&qd=MxQEkSlos1GEjU62O1KFoRQw54NvLaDNxEJ5HB_yo9JJuNxUwSX-dwk-w0wHXusNOEyi7Ig2BiUiTPzAZ8bhdxZp0YAHoVjVeaQQBYHgJVA&indpubnum=4889224015872296&atk=190a527i21d511p9,1,0,0,0,0,0,0,0,0,0,0,0,1,0,1,0,0
Charlotte,Terminal Contacts LLC,US,2014-08-26 00:27:23,46e87ad17ebfdf4a,Business Analyst,35.192307,-80.82417,NC,http://www.indeed.com/viewjob?jk=46e87ad17ebfdf4a&qd=MxQEkSlos1GEjU62O1KFoRQw54NvLaDNxEJ5HB_yo9I7mSQq4nfhItdpLIhAcQhv5b84G9kPk0ZXIu9oaLz88lO0Pmg2DxQtLM_69ugIucM&indpubnum=4889224015872296&atk=190a5ftv71d4i46j,0,1,0,0,0,0,0,0,0,0,0,0,0,0,1,0,0
Houston,BizTech Solutions Inc,US,2014-08-26 00:27:23,c9e429115c6df4c5,Data Analyst,29.75,-95.60989,TX,http://www.indeed.com/viewjob?jk=c9e429115c6df4c5&qd=MxQEkSlos1GEjU62O1KFoRQw54NvLaDNxEJ5HB_yo9KLdT4cW5TS8hByZED3VJdosY2RNltsQsMe6iuw_4n_rV420ArpygQmlUlOpbWW_EY&indpubnum=4889224015872296&atk=190a5m66j1d4h0hh,0,0,0,0,0,0,0,0,0,0,0,0,0,0,0,0,0
Baltimore,"PerigonSoft, LLC",US,2014-08-26 00:27:21,9d04f44afbde45ac,Data Analyst,39.332417,-76.69231,MD,http://www.indeed.com/viewjob?jk=9d04f44afbde45ac&qd=MxQEkSlos1GEjU62O1KFoRQw54NvLaDNxEJ5HB_yo9K1R6c7KtPNAewnuw3MsymeAnBqQq8iMix3ef86fizcMo3SbaEHtcalZsekxUIOO5M&indpubnum=4889224015872296&atk=190a58h0n1d3h00c,1,0,0,0,0,0,1,0,0,0,0,0,0,0,1,1,0
Harrisburg,Calvary Consulting,US,2014-08-26 00:27:19,68c070416f7eba58,Oracle Data Analyst with Erwin,40.26099,-76.87912,PA,http://www.indeed.com/viewjob?jk=68c070416f7eba58&qd=MxQEkSlos1GEjU62O1KFoRQw54NvLaDNxEJ5HB_yo9JBy2QeS2uKGSlme_PhyJLGmPkNxTj973naemBASyztlyFv9hTfj3LC5rfMCG2D_sI&indpubnum=4889224015872296&atk=190a5iupn1d6i5k0,1,1,0,0,0,0,0,0,0,0,0,0,0,1,0,0,0
Harrisburg,"DTSC, Inc.",US,2014-08-26 00:27:17,050d7835d0ee1bae,Oracle Data Analyst,40.258244,-76.85714,PA,http://www.indeed.com/viewjob?jk=050d7835d0ee1bae&qd=MxQEkSlos1GEjU62O1KFoRQw54NvLaDNxEJ5HB_yo9JBy2QeS2uKGSlme_PhyJLGmPkNxTj973naemBASyztl1Rvv62K6Aqu0GOYUGhxONg&indpubnum=4889224015872296&atk=190a5ivcd1d6157o,1,1,0,0,0,0,0,0,0,0,0,0,0,1,0,0,0
Houston,Corporate Biz Solutions Inc,US,2014-08-26 00:27:17,0361fee05906d808,Data Analyst with WDM,29.71978,-95.21978,TX,http://www.indeed.com/viewjob?jk=0361fee05906d808&qd=MxQEkSlos1GEjU62O1KFoRQw54NvLaDNxEJ5HB_yo9KLdT4cW5TS8hByZED3VJdosY2RNltsQsMe6iuw_4n_rZAYdr1ef-b4t0-8UADg2uY&indpubnum=4889224015872296&atk=190a5m6on1d426ud,0,0,0,0,0,0,0,0,0,0,0,0,0,0,0,0,0
Tallahassee,System Soft Technologies,US,2014-08-26 00:27:14,2389e0a64cd94725,Datawarehouse Analyst,30.428572,-84.25275,FL,http://www.indeed.com/viewjob?jk=2389e0a64cd94725&qd=MxQEkSlos1GEjU62O1KFoRQw54NvLaDNxEJ5HB_yo9LLBCiPjkU9KpwDU5bpt3OiEL9x_Tpofxobm740digpX6PROgF6AMiHNVDQqgU7yWA&indpubnum=4889224015872296&atk=190a5348f1d510io,1,1,0,0,0,0,0,0,0,0,0,0,0,0,0,0,0
Minneapolis,North Point IT Corp,US,2014-08-26 00:27:14,eb8f73fb82f7319c,"Urgent Need Re: Business/Data Analyst @ Minneapolis, MN",44.983517,-93.26923,MN,http://www.indeed.com/viewjob?jk=eb8f73fb82f7319c&qd=MxQEkSlos1GEjU62O1KFoRQw54NvLaDNxEJ5HB_yo9IQ9Ji1NXswmwoyMQeMSJhNlV9Ci6VerZMrLprUxSeWWvjCqvfcy25zZMOampzS9SU&indpubnum=4889224015872296&atk=190a5a6r21d420e5,1,1,0,0,0,0,0,0,0,0,0,0,0,0,1,0,0
Harrisburg,"ITSI - Integrated Technology Services, Inc.",US,2014-08-26 00:27:14,ba1c7e4649c18f9a,Oracle Data Analyst,40.26099,-76.87912,PA,http://www.indeed.com/viewjob?jk=ba1c7e4649c18f9a&qd=MxQEkSlos1GEjU62O1KFoRQw54NvLaDNxEJ5HB_yo9JBy2QeS2uKGSlme_PhyJLGmPkNxTj973naemBASyztl1Rvv62K6Aqu0GOYUGhxONg&indpubnum=4889224015872296&atk=190a5ivcd1d6157o,1,1,0,0,0,0,0,0,0,0,0,0,0,1,0,0,0
McLean,QSI Services Inc,US,2014-08-26 00:27:10,16a351c6cdd68d9c,Teradata Data Analyst,38.92857,-77.17583,VA,http://www.indeed.com/viewjob?jk=16a351c6cdd68d9c&qd=MxQEkSlos1GEjU62O1KFoRQw54NvLaDNxEJ5HB_yo9JJuNxUwSX-dwk-w0wHXusNOEyi7Ig2BiUiTPzAZ8bhd8XvaWNpF7D8k6h9M4MbtTs&indpubnum=4889224015872296&atk=190a526a31d626vj,1,1,0,0,0,0,1,0,0,0,0,0,0,1,0,0,0
Brooklyn,"Universal Technologies, LLC",US,2014-08-26 00:27:00,d3658587ee3390bd,Project Manager,40.64835,-73.94505,NY,http://www.indeed.com/viewjob?jk=d3658587ee3390bd&qd=MxQEkSlos1GEjU62O1KFoRQw54NvLaDNxEJ5HB_yo9KUPDXN_D2AI1pADZ5diohv_MQgRfwuc1MYwhqfMjIoKG8aNGOcT_y2Q5lXCz6jV5s&indpubnum=4889224015872296&atk=190a5f8ap1d6220c,0,0,0,0,0,0,0,0,0,0,0,0,0,0,0,0,0
Raleigh,CSpring,US,2014-08-26 00:27:00,b97c75be7268db87,Data Analyst,35.771976,-78.63736,NC,http://www.indeed.com/viewjob?jk=b97c75be7268db87&qd=MxQEkSlos1GEjU62O1KFoRQw54NvLaDNxEJ5HB_yo9I7mSQq4nfhItdpLIhAcQhv5b84G9kPk0ZXIu9oaLz88imlF8mJMlpG_IoKjZ4oz0w&indpubnum=4889224015872296&atk=190a5ftd01d6h15q,0,1,0,0,0,0,0,0,0,0,0,0,0,0,0,0,0
Atlanta,Corus360,US,2014-08-26 00:26:55,c4709e7dafb9c3a8,Data Warehouse Business Analyst,33.82967,-84.38461,GA,http://www.indeed.com/viewjob?jk=c4709e7dafb9c3a8&qd=MxQEkSlos1GEjU62O1KFoRQw54NvLaDNxEJ5HB_yo9LNwCtnSNwkyNdqADMRsp0qGPnusQxy_m1-iys11mXFOL9ufMPhjiaFDt3eTpUmMvY&indpubnum=4889224015872296&atk=190a53lgp1d6210e,0,0,0,0,0,0,0,0,0,0,0,0,0,0,0,0,0
New York,Bellevue Hospital Center,US,2014-08-26 00:26:55,7b78b44dea5b77c2,Data Analyst,40.744507,-73.97802,NY,http://www.indeed.com/viewjob?jk=7b78b44dea5b77c2&qd=MxQEkSlos1GEjU62O1KFoRQw54NvLaDNxEJ5HB_yo9KUPDXN_D2AI1pADZ5diohv_MQgRfwuc1MYwhqfMjIoKI2U3QTJPT2CgyG-_EbbzWE&indpubnum=4889224015872296&atk=190a5f9ct1d3h3vh,1,1,0,0,0,0,0,0,0,0,0,0,0,0,1,1,0
Harrisburg,Neumeric Technologies Corporation,US,2014-08-26 00:26:50,261b952a9f8ddf37,Oracle Data Analyst,40.26099,-76.87912,PA,http://www.indeed.com/viewjob?jk=261b952a9f8ddf37&qd=MxQEkSlos1GEjU62O1KFoRQw54NvLaDNxEJ5HB_yo9JBy2QeS2uKGSlme_PhyJLGmPkNxTj973naemBASyztl1Rvv62K6Aqu0GOYUGhxONg&indpubnum=4889224015872296&atk=190a5ivcd1d6157o,1,1,0,0,0,0,0,0,0,0,0,0,0,1,0,0,0
Oakland,Bay Area Techworkers,US,2014-08-26 00:26:46,20d5bfb262b814eb,Data Analyst,37.81044,-122.26923,CA,http://www.indeed.com/viewjob?jk=20d5bfb262b814eb&qd=MxQEkSlos1GEjU62O1KFoRQw54NvLaDNxEJ5HB_yo9KhckHN80-uURCmMV-ouodrGp6jym_krcGFaWElJybt0WUkuSvGjYpgSBvDKVPAUNw&indpubnum=4889224015872296&atk=190a50m7p1d5h6k4,1,1,0,0,0,0,0,0,0,0,0,0,0,0,0,1,0
Milwaukee,Medical College of Wisconsin,US,2014-08-26 00:24:05,f659d340ec69a8ce,Data Analyst II,43.03846,-87.9011,WI,http://www.indeed.com/viewjob?jk=f659d340ec69a8ce&qd=MxQEkSlos1GEjU62O1KFoRQw54NvLaDNxEJ5HB_yo9LQbus8L0MSQrDv8tcQIaSDR-cMb1niemHniBsA_Pz47KgigbPPwQaD7qyVKWi-GoY&indpubnum=4889224015872296&atk=190a5pvs81d5i267,1,0,0,0,0,0,0,0,0,0,0,0,0,0,1,0,0
Anaheim,Kimco,US,2014-08-26 00:15:57,d91370b29588fc94,Data Analyst,33.835163,-117.90659,CA,http://www.indeed.com/viewjob?jk=d91370b29588fc94&qd=MxQEkSlos1GEjU62O1KFoRQw54NvLaDNxEJ5HB_yo9KhckHN80-uURCmMV-ouodrGp6jym_krcGFaWElJybt0R-nbn5POercKpcITc6Cemo&indpubnum=4889224015872296&atk=190a50opb1d311td,1,1,0,0,0,0,0,0,0,0,0,0,0,0,1,0,0
Austin,Yodle,US,2014-08-26 00:10:39,f0cf1e27ee5efdc6,Data Analyst,30.266483,-97.74176,TX,http://www.indeed.com/viewjob?jk=f0cf1e27ee5efdc6&qd=MxQEkSlos1GEjU62O1KFoRQw54NvLaDNxEJ5HB_yo9KLdT4cW5TS8hByZED3VJdosY2RNltsQsMe6iuw_4n_rXKIb55PbZuaudVs0tL2puM&indpubnum=4889224015872296&atk=190a5m4nf1d5i1i3,1,1,0,0,1,0,0,0,0,0,0,0,0,0,1,1,0
San Antonio,UnitedHealth Group,US,2014-08-26 00:08:00,42ba140277200cbd,"Senior Data Analyst - WellMed - San Antonio, TX",29.423077,-98.48901,TX,http://www.indeed.com/viewjob?jk=42ba140277200cbd&qd=MxQEkSlos1GEjU62O1KFoRQw54NvLaDNxEJ5HB_yo9KLdT4cW5TS8hByZED3VJdosY2RNltsQsMe6iuw_4n_rV420ArpygQmlUlOpbWW_EY&indpubnum=4889224015872296&atk=190a5m5tg1d4h3gs,1,1,0,0,0,0,0,0,0,0,0,0,0,0,1,1,0
Glenview,Anixter,US,2014-08-25 23:59:25,064d2364117d6851,Supply Chain Analyst Fasteners,42.06868,-87.78571,IL,http://www.indeed.com/viewjob?jk=064d2364117d6851&qd=MxQEkSlos1GEjU62O1KFoRQw54NvLaDNxEJ5HB_yo9Ji_N1lCNco_1Qb6o_wn_YYbUylFMtGSdj3wGw9oPlG2gvTIwPGDPu2at-8N_fRUvs&indpubnum=4889224015872296&atk=190a551a01d3h739,1,0,0,0,0,0,0,0,0,0,0,0,0,0,1,0,0
Hood River,Insitu,US,2014-08-25 23:58:39,7ca21c26d14462fe,Maintenance Data Analyst 3,45.664837,-121.53846,OR,http://www.indeed.com/viewjob?jk=7ca21c26d14462fe&qd=MxQEkSlos1GEjU62O1KFoRQw54NvLaDNxEJ5HB_yo9I3QFonucV-A84ilqDTRFQQezxp6HtNeobRzrUgmyplQLwFGwsg5CKl7Z6WkZb9caQ&indpubnum=4889224015872296&atk=190a5ia7p1d3h0eh,1,0,0,0,0,0,0,0,0,0,0,0,0,0,0,0,0
Atlanta,Randstad Professionals,US,2014-08-25 23:49:43,31328596a3a9cbb1,SAP Data Analyst,33.747253,-84.38461,GA,http://www.indeed.com/viewjob?jk=31328596a3a9cbb1&qd=MxQEkSlos1GEjU62O1KFoRQw54NvLaDNxEJ5HB_yo9LNwCtnSNwkyNdqADMRsp0qGPnusQxy_m1-iys11mXFOL9ufMPhjiaFDt3eTpUmMvY&indpubnum=4889224015872296&atk=190a53lae1d4h433,1,0,0,0,0,0,0,0,0,0,0,0,0,0,0,0,0
Chicago,Real Staffing,US,2014-08-25 23:44:52,6593aca7aef864d4,Senior Data Analyst(Digital Marketing/Med Coms) Temp To Hire,41.8489,-87.64835,IL,http://www.indeed.com/viewjob?jk=6593aca7aef864d4&qd=MxQEkSlos1GEjU62O1KFoRQw54NvLaDNxEJ5HB_yo9Ji_N1lCNco_1Qb6o_wn_YYbUylFMtGSdj3wGw9oPlG2mHw7urJSBZxxPbpHetk9Ys&indpubnum=4889224015872296&atk=190a552jv1d6h555,1,1,0,0,0,0,0,0,0,0,0,0,0,0,0,0,0
South Bend,"Williamson Employment Services, Inc.",US,2014-08-25 23:44:39,c5b8d5a5020bb43f,Administrative Assistant / Data Analyst,41.68132,-86.24725,IN,http://www.indeed.com/viewjob?jk=c5b8d5a5020bb43f&qd=MxQEkSlos1GEjU62O1KFoRQw54NvLaDNxEJ5HB_yo9K57tOgZx2uDq6fMn3VIiidP5UossZuJ7aM-Kyj6OzRP6_VgrpSuenqJsHkSE4xxgs&indpubnum=4889224015872296&atk=190a55ial1d512to,1,0,0,0,0,0,0,0,0,0,0,0,0,0,0,0,0
Seattle,Infectious Disease Research Institute,US,2014-08-25 23:35:22,e6a8fd0f386ea488,Data Analyst,47.631866,-122.31868,WA,http://www.indeed.com/viewjob?jk=e6a8fd0f386ea488&qd=MxQEkSlos1GEjU62O1KFoRQw54NvLaDNxEJ5HB_yo9L3eGb1R6djEvbLTasqTfyz4Z0r1R5zmkNbj4VOJWHLHCbDL7FpnI3YjYB-q9YBZvg&indpubnum=4889224015872296&atk=190a5opi11d4i03b,0,0,0,0,0,0,0,0,0,0,0,0,0,0,0,1,0
Manhattan,TEKsystems,US,2014-08-25 23:18:33,ecff03a4201fb1a9,Data Warehouse Data Analyst,40.782967,-73.96154,NY,http://www.indeed.com/viewjob?jk=ecff03a4201fb1a9&qd=MxQEkSlos1GEjU62O1KFoRQw54NvLaDNxEJ5HB_yo9KUPDXN_D2AI1pADZ5diohv_MQgRfwuc1MYwhqfMjIoKCU9acvvqmGvLTDTvL990bI&indpubnum=4889224015872296&atk=190a5fadb1d6i5l6,0,1,0,0,0,0,0,0,0,0,0,0,0,0,0,0,0
Manhattan,TEKsystems,US,2014-08-25 23:18:32,16f62e960cc7a79f,Unstructured Data Analyst,40.782967,-73.96154,NY,http://www.indeed.com/viewjob?jk=16f62e960cc7a79f&qd=MxQEkSlos1GEjU62O1KFoRQw54NvLaDNxEJ5HB_yo9KUPDXN_D2AI1pADZ5diohv_MQgRfwuc1MYwhqfMjIoKG8aNGOcT_y2Q5lXCz6jV5s&indpubnum=4889224015872296&atk=190a5f8rs1d41202,0,1,0,0,0,0,0,0,0,0,0,0,0,0,1,0,0
Baltimore,TEKsystems,US,2014-08-25 23:18:16,bb2b3a4c2780c841,Data Analyst,39.28846,-76.60989,MD,http://www.indeed.com/viewjob?jk=bb2b3a4c2780c841&qd=MxQEkSlos1GEjU62O1KFoRQw54NvLaDNxEJ5HB_yo9K1R6c7KtPNAewnuw3MsymeAnBqQq8iMix3ef86fizcMo3SbaEHtcalZsekxUIOO5M&indpubnum=4889224015872296&atk=190a58gph1d413dt,1,1,0,0,0,0,1,0,0,0,0,0,1,0,0,1,0
St. Louis,Washington University in St. Louis,US,2014-08-25 23:18:02,f561385a738afef7,Statistical Data Analyst - Biostatistics,38.626373,-90.1978,MO,http://www.indeed.com/viewjob?jk=f561385a738afef7&qd=MxQEkSlos1GEjU62O1KFoRQw54NvLaDNxEJ5HB_yo9I6B5XPu2Ew-VrIxmUWCmEQD8f7lw2UxdxWldkJhjEz9LNRGBXGFkSvNTJBNUnVOvc&indpubnum=4889224015872296&atk=190a5b8ji1d423ui,0,0,0,0,0,0,1,0,0,0,0,0,0,1,1,1,0
Southwest Venice,"TechSophy, Inc.",US,2014-08-25 23:17:54,d084bbb74b34581e,Need Senior Data Modeler at FL,27.038462,-82.42308,FL,http://www.indeed.com/viewjob?jk=d084bbb74b34581e&qd=MxQEkSlos1GEjU62O1KFoRQw54NvLaDNxEJ5HB_yo9LLBCiPjkU9KpwDU5bpt3OiEL9x_Tpofxobm740digpXw1Br_vglkmOA6-bPrFfnMU&indpubnum=4889224015872296&atk=190a534vd1d2h13j,1,1,0,0,0,0,0,0,0,0,0,0,0,0,0,0,0
Pittsburgh,Newpark Drilling Fluids LLC,US,2014-08-25 23:12:08,021b717e6417e80f,Project Billing Coordinator,40.43956,-79.99451,PA,http://www.indeed.com/viewjob?jk=021b717e6417e80f&qd=MxQEkSlos1GEjU62O1KFoRQw54NvLaDNxEJ5HB_yo9JBy2QeS2uKGSlme_PhyJLGmPkNxTj973naemBASyztlyFv9hTfj3LC5rfMCG2D_sI&indpubnum=4889224015872296&atk=190a5iu8i1d5i0vf,0,0,0,0,0,0,0,0,0,0,0,0,0,0,0,0,0
East Bay,California State University,US,2014-08-25 23:04:47,76d58b900a7a1294,"Senior Data Analyst - Associate, Academic & Institutional Studie (4368)",37.887363,-122.0989,CA,http://www.indeed.com/viewjob?jk=76d58b900a7a1294&qd=MxQEkSlos1GEjU62O1KFoRQw54NvLaDNxEJ5HB_yo9KhckHN80-uURCmMV-ouodrGp6jym_krcGFaWElJybt0QxcXH_0LlPhmrOJCaT-DQY&indpubnum=4889224015872296&atk=190a50k581d5i3a0,1,0,0,0,0,0,1,0,0,0,0,0,1,0,0,1,0
New York,Michael Page,US,2014-08-25 23:03:10,56966987d351dece,VBA Data Analyst,40.71154,-74.00549,NY,http://www.indeed.com/viewjob?jk=56966987d351dece&qd=MxQEkSlos1GEjU62O1KFoRQw54NvLaDNxEJ5HB_yo9KUPDXN_D2AI1pADZ5diohv_MQgRfwuc1MYwhqfMjIoKI2U3QTJPT2CgyG-_EbbzWE&indpubnum=4889224015872296&atk=190a5f9401d4i2jj,0,1,0,0,0,0,0,0,0,0,0,0,0,0,1,0,0
Charlotte,Principle Solutions Group,US,2014-08-25 22:53:07,1c4c0bd8c561c7fe,Senior Data Analyst/DataStage Developer,35.225273,-80.84066,NC,http://www.indeed.com/viewjob?jk=1c4c0bd8c561c7fe&qd=MxQEkSlos1GEjU62O1KFoRQw54NvLaDNxEJ5HB_yo9I7mSQq4nfhItdpLIhAcQhv5b84G9kPk0ZXIu9oaLz88o3oehVJhkUNPmLxu_ecZro&indpubnum=4889224015872296&atk=190a5fuvf1d4h45o,0,1,0,0,1,0,0,0,0,0,0,0,0,0,0,1,0
Canonsburg,Crown Castle USA,US,2014-08-25 22:45:26,0b750a91f9b0b0fa,IT Senior Data Analyst,40.26099,-80.18681,PA,http://www.indeed.com/viewjob?jk=0b750a91f9b0b0fa&qd=MxQEkSlos1GEjU62O1KFoRQw54NvLaDNxEJ5HB_yo9JBy2QeS2uKGSlme_PhyJLGmPkNxTj973naemBASyztlyFv9hTfj3LC5rfMCG2D_sI&indpubnum=4889224015872296&atk=190a5iu8i1d5i0vf,1,0,0,0,0,0,0,0,0,1,0,0,0,0,1,0,0
Northbrook,Accountemps,US,2014-08-25 22:45:08,75df065f1b52dee3,Data Analyst,42.126373,-87.84066,IL,http://www.indeed.com/viewjob?jk=75df065f1b52dee3&qd=MxQEkSlos1GEjU62O1KFoRQw54NvLaDNxEJ5HB_yo9Ji_N1lCNco_1Qb6o_wn_YYbUylFMtGSdj3wGw9oPlG2gvTIwPGDPu2at-8N_fRUvs&indpubnum=4889224015872296&atk=190a5512n1d315hi,1,0,0,0,0,0,0,0,0,0,0,0,0,0,0,0,0
Milwaukee,Kforce,US,2014-08-25 22:44:40,37370818be1976cf,Data Analst,43.046703,-87.89561,WI,http://www.indeed.com/viewjob?jk=37370818be1976cf&qd=MxQEkSlos1GEjU62O1KFoRQw54NvLaDNxEJ5HB_yo9LQbus8L0MSQrDv8tcQIaSDR-cMb1niemHniBsA_Pz47KgigbPPwQaD7qyVKWi-GoY&indpubnum=4889224015872296&atk=190a5pvs81d5i267,1,1,0,0,0,0,0,0,0,0,0,0,0,0,1,1,0
Cheshire,Foundation Staffing,US,2014-08-25 22:41:23,606f0fa16e547af5,Quality Assurance Analyst,41.497253,-72.89561,CT,http://www.indeed.com/viewjob?jk=606f0fa16e547af5&qd=MxQEkSlos1GEjU62O1KFoRQw54NvLaDNxEJ5HB_yo9Jg8b-VFcmUXvVxg4X47-ltzoEXG8CUr0i7gI9pJSuFItBItJAcVdRaEYV2JlZpIJk&indpubnum=4889224015872296&atk=190a51i3p1d425mq,1,1,0,0,1,0,0,0,0,0,0,0,0,0,1,1,0
Seattle,Seattle University,US,2014-08-25 22:41:23,3413f542762f2e22,Programmer-Data Analyst,47.604397,-122.32967,WA,http://www.indeed.com/viewjob?jk=3413f542762f2e22&qd=MxQEkSlos1GEjU62O1KFoRQw54NvLaDNxEJ5HB_yo9L3eGb1R6djEvbLTasqTfyz4Z0r1R5zmkNbj4VOJWHLHCbDL7FpnI3YjYB-q9YBZvg&indpubnum=4889224015872296&atk=190a5opi11d4i03b,1,1,0,0,0,0,1,0,0,0,0,0,0,0,1,0,0
Stanford,Stanford University,US,2014-08-25 22:25:23,40e6b000c99aa96f,Data Analyst,37.423077,-122.16483,CA,http://www.indeed.com/viewjob?jk=40e6b000c99aa96f&qd=MxQEkSlos1GEjU62O1KFoRQw54NvLaDNxEJ5HB_yo9KhckHN80-uURCmMV-ouodrGp6jym_krcGFaWElJybt0QxcXH_0LlPhmrOJCaT-DQY&indpubnum=4889224015872296&atk=190a50k581d5i3a0,0,0,0,0,0,0,0,0,0,0,0,0,0,0,0,0,0
Boston,John Hancock,US,2014-08-25 22:23:12,7a86d739f06c84a6,Data Management Analyst,42.357143,-71.05495,MA,http://www.indeed.com/viewjob?jk=7a86d739f06c84a6&qd=MxQEkSlos1GEjU62O1KFoRQw54NvLaDNxEJ5HB_yo9LulBvtWb3NvLPZ9bcwG7w0LKuJy9BzgjjY5yEKN_5Fi05z9lV3dHGAHdatI1XZpNY&indpubnum=4889224015872296&atk=190a592231d5i6u2,0,0,0,0,0,0,0,0,0,0,0,0,0,0,1,1,0
Westbrook,IDEXX Laboratories,US,2014-08-25 22:17:44,a5aedb48fe2117f8,Temporary Data Analyst,43.675823,-70.36813,ME,http://www.indeed.com/viewjob?jk=a5aedb48fe2117f8&qd=MxQEkSlos1GEjU62O1KFoRQw54NvLaDNxEJ5HB_yo9I6kO1fbplItW84I7iyR6Dtobh9m3MUcjrV0IXPVXoTEIhgQWsSOebTnjHmi4fU4-g&indpubnum=4889224015872296&atk=190a580qu1d723uu,1,1,0,0,0,0,0,0,0,0,0,0,0,0,1,0,0
Dallas,The InSource Group Inc,US,2014-08-25 21:59:08,21c11e6bd2c5c144,QA Tester (UAT),32.785713,-96.7967,TX,http://www.indeed.com/viewjob?jk=21c11e6bd2c5c144&qd=MxQEkSlos1GEjU62O1KFoRQw54NvLaDNxEJ5HB_yo9KLdT4cW5TS8hByZED3VJdosY2RNltsQsMe6iuw_4n_rV420ArpygQmlUlOpbWW_EY&indpubnum=4889224015872296&atk=190a5m66j1d4h0hh,0,1,0,0,0,0,0,0,0,0,0,0,0,1,0,0,0
Clayton,Centene Corporation,US,2014-08-25 21:50:00,8bd3d2234d05dc62,Data Analyst I,38.64011,-90.31868,MO,http://www.indeed.com/viewjob?jk=8bd3d2234d05dc62&qd=MxQEkSlos1GEjU62O1KFoRQw54NvLaDNxEJ5HB_yo9I6B5XPu2Ew-VrIxmUWCmEQD8f7lw2UxdxWldkJhjEz9LNRGBXGFkSvNTJBNUnVOvc&indpubnum=4889224015872296&atk=190a5b8ji1d423ui,1,1,0,0,0,0,0,0,0,0,0,0,0,0,1,0,0
Baton Rouge,Centene Corporation,US,2014-08-25 21:47:33,6e774c5855609f45,Data Analyst II,30.45055,-91.15385,LA,http://www.indeed.com/viewjob?jk=6e774c5855609f45&qd=MxQEkSlos1GEjU62O1KFoRQw54NvLaDNxEJ5HB_yo9I67ErWQ-hiBzUuT9dm-QI1P5UossZuJ7aM-Kyj6OzRP_gHzNySTZVHRUD7jSLk490&indpubnum=4889224015872296&atk=190a57gmc1d324tl,1,1,0,0,0,0,0,0,0,0,0,0,0,0,1,1,0
Boston,Boston Children's Hospital,US,2014-08-25 21:38:24,5079a66a1200ca8f,REDCap Data Analyst,42.357143,-71.05495,MA,http://www.indeed.com/viewjob?jk=5079a66a1200ca8f&qd=MxQEkSlos1GEjU62O1KFoRQw54NvLaDNxEJ5HB_yo9LulBvtWb3NvLPZ9bcwG7w0LKuJy9BzgjjY5yEKN_5Fi05z9lV3dHGAHdatI1XZpNY&indpubnum=4889224015872296&atk=190a592231d5i6u2,0,0,0,0,0,0,0,0,0,0,0,0,0,0,1,0,0
Richmond,Royall & Company,US,2014-08-25 21:22:00,8f371dab5f5f63a8,Account Services Manager,37.552197,-77.45605,VA,http://www.indeed.com/viewjob?jk=8f371dab5f5f63a8&qd=MxQEkSlos1GEjU62O1KFoRQw54NvLaDNxEJ5HB_yo9JbLTVuafyVGbPDWAqafXCBIG79JCMi2fuu9D0iIU5fQtCojm_SHhvtGatfFYIRR2A&indpubnum=4889224015872296&atk=190a5o40h1d525r8,0,0,0,0,0,0,0,0,0,0,0,0,0,0,1,0,0
Oakland,Mastech,US,2014-08-25 21:21:00,2831715d603b01ff,Data Analyst,37.802197,-122.26923,CA,http://www.indeed.com/viewjob?jk=2831715d603b01ff&qd=MxQEkSlos1GEjU62O1KFoRQw54NvLaDNxEJ5HB_yo9KhckHN80-uURCmMV-ouodrGp6jym_krcGFaWElJybt0fWjcEjh4gTkJgkG9GZHrA4&indpubnum=4889224015872296&atk=190a50ku21d3h4p6,0,0,0,0,0,0,1,0,0,0,0,0,0,0,1,0,0
Washington,"The Center For Organizational Excellence, Inc.",US,2014-08-25 21:02:33,911bd314ff70760e,SAS Data Analyst,38.906593,-77.01649,DC,http://www.indeed.com/viewjob?jk=911bd314ff70760e&qd=MxQEkSlos1GEjU62O1KFoRQw54NvLaDNxEJ5HB_yo9JJuNxUwSX-dwk-w0wHXusNOEyi7Ig2BiUiTPzAZ8bhd7u7ogirHcm_QTCvt4Vb73w&indpubnum=4889224015872296&atk=190a5262n1d526c5,1,1,0,0,0,0,1,0,0,0,0,0,0,0,1,1,0
New York,The Judge Group,US,2014-08-25 20:50:54,b042f5896bbd8854,BUSINESS ANALYST with Credit Card or Mortgage Exp,40.71154,-74.00549,NY,http://www.indeed.com/viewjob?jk=b042f5896bbd8854&qd=MxQEkSlos1GEjU62O1KFoRQw54NvLaDNxEJ5HB_yo9KUPDXN_D2AI1pADZ5diohv_MQgRfwuc1MYwhqfMjIoKI2U3QTJPT2CgyG-_EbbzWE&indpubnum=4889224015872296&atk=190a5f9ct1d3h3vh,0,0,0,0,0,0,1,0,0,0,0,0,0,0,1,0,0
Cherry Hill,Kennedy Health System,US,2014-08-25 20:38:58,73f28c1cdfa7fdf7,BI Analyst ll,39.934067,-75.02747,NJ,http://www.indeed.com/viewjob?jk=73f28c1cdfa7fdf7&qd=MxQEkSlos1GEjU62O1KFoRQw54NvLaDNxEJ5HB_yo9IuoauPq75eD-dhOEz8DE_n8gtCm65lPbNJ01qX1cWx2UoskdDmAdFiBqe4FPyvqEI&indpubnum=4889224015872296&atk=190a5e2tu1d3i3un,0,0,0,0,0,0,0,0,0,0,0,0,0,0,1,0,0
Concord,Meridian Staffing Services,US,2014-08-25 20:38:00,318fab0169af426b,Data Analyst / Data Processor,37.975273,-122.02747,CA,http://www.indeed.com/viewjob?jk=318fab0169af426b&qd=MxQEkSlos1GEjU62O1KFoRQw54NvLaDNxEJ5HB_yo9KhckHN80-uURCmMV-ouodrGp6jym_krcGFaWElJybt0WUkuSvGjYpgSBvDKVPAUNw&indpubnum=4889224015872296&atk=190a50lr41d4h1og,0,0,0,0,0,0,0,0,0,0,0,0,0,0,0,1,0
Spartanburg,American Credit Acceptance,US,2014-08-25 20:36:00,32dbceaf66cc9a2d,Data Analyst,34.947803,-81.92857,SC,http://www.indeed.com/viewjob?jk=32dbceaf66cc9a2d&qd=MxQEkSlos1GEjU62O1KFoRQw54NvLaDNxEJ5HB_yo9IENHPFmhxHd1Z6cVJX8n2gezxp6HtNeobRzrUgmyplQHnkVefGj8IMaLCXGqnSkQw&indpubnum=4889224015872296&atk=190a5k89q1d627vp,0,1,0,0,0,0,0,0,0,0,0,0,0,0,1,0,0
Honolulu,TEKsystems,US,2014-08-25 20:19:29,2ccbe7476e35ddc7,Data Analyst,21.304945,-157.85715,HI,http://www.indeed.com/viewjob?jk=2ccbe7476e35ddc7&qd=MxQEkSlos1GEjU62O1KFoRQw54NvLaDNxEJ5HB_yo9LWWoM0oLR8yfesTv5A5127ezxp6HtNeobRzrUgmyplQLaJj3tAfjUeq9HYnRptpNY&indpubnum=4889224015872296&atk=190a543f21d5i7l9,0,0,0,0,0,0,0,0,0,0,0,0,0,0,0,0,0
Oakland,Aerotek,US,2014-08-25 20:19:08,f3fc1e2f935a925d,Administrative Coordinator,37.802197,-122.26923,CA,http://www.indeed.com/viewjob?jk=f3fc1e2f935a925d&qd=MxQEkSlos1GEjU62O1KFoRQw54NvLaDNxEJ5HB_yo9KhckHN80-uURCmMV-ouodrGp6jym_krcGFaWElJybt0R-nbn5POercKpcITc6Cemo&indpubnum=4889224015872296&atk=190a50opb1d311td,0,0,0,0,0,0,0,0,0,0,0,0,0,0,0,0,0
Mountain View,FocusKPI Inc.,US,2014-08-25 20:12:07,2ee63af716c88b65,Data Analyst,37.384617,-122.08242,CA,http://www.indeed.com/viewjob?jk=2ee63af716c88b65&qd=MxQEkSlos1GEjU62O1KFoRQw54NvLaDNxEJ5HB_yo9KhckHN80-uURCmMV-ouodrGp6jym_krcGFaWElJybt0QxcXH_0LlPhmrOJCaT-DQY&indpubnum=4889224015872296&atk=190a50k581d5i3a0,0,1,0,1,0,0,1,0,0,1,1,0,0,0,1,1,0
Tallahassee,GDKN Corporation,US,2014-08-25 20:10:53,4ba50bc396cbfc2e,Data Warehouse Analyst,30.436813,-84.28022,FL,http://www.indeed.com/viewjob?jk=4ba50bc396cbfc2e&qd=MxQEkSlos1GEjU62O1KFoRQw54NvLaDNxEJ5HB_yo9LLBCiPjkU9KpwDU5bpt3OiEL9x_Tpofxobm740digpXw1Br_vglkmOA6-bPrFfnMU&indpubnum=4889224015872296&atk=190a534f91d6h264,1,1,0,0,0,0,0,0,0,0,0,0,0,0,0,0,0
Miami,Park Street,US,2014-08-25 19:59:04,852fddbd271b2458,Data Analyst,25.763737,-80.18681,FL,http://www.indeed.com/viewjob?jk=852fddbd271b2458&qd=MxQEkSlos1GEjU62O1KFoRQw54NvLaDNxEJ5HB_yo9LLBCiPjkU9KpwDU5bpt3OiEL9x_Tpofxobm740digpX6PROgF6AMiHNVDQqgU7yWA&indpubnum=4889224015872296&atk=190a533q71d3h642,1,1,0,0,0,0,0,0,0,0,0,0,0,0,1,0,0
New Albany,Aetna,US,2014-08-25 19:45:17,782b797976b20b8f,Healthcare Data Analyst,40.07967,-82.80769,OH,http://www.indeed.com/viewjob?jk=782b797976b20b8f&qd=MxQEkSlos1GEjU62O1KFoRQw54NvLaDNxEJ5HB_yo9IzKNHijS7kTjt4KmPZaQ54tR1Zys_YS33zV-EIckb4Sl4v1r9IRXxZu2l8KPe2HsM&indpubnum=4889224015872296&atk=190a5h18s1d526ga,1,1,0,0,0,0,0,0,0,0,0,0,0,0,1,1,0
Waukesha,US Cellular,US,2014-08-25 19:40:00,43cb0fd9f6cc0540,"Coach Customer Service, Waukehsa / Milwaukee, WI Job",43.01099,-88.23077,WI,http://www.indeed.com/viewjob?jk=43cb0fd9f6cc0540&qd=MxQEkSlos1GEjU62O1KFoRQw54NvLaDNxEJ5HB_yo9LQbus8L0MSQrDv8tcQIaSDR-cMb1niemHniBsA_Pz47KgigbPPwQaD7qyVKWi-GoY&indpubnum=4889224015872296&atk=190a5pvs81d5i267,1,0,0,0,0,0,0,0,0,0,0,0,0,0,1,1,0
Salt Lake City,ASEA,US,2014-08-25 19:18:48,bd9223013bd67482,Senior BI Report Writer,40.758244,-111.89011,UT,http://www.indeed.com/viewjob?jk=bd9223013bd67482&qd=MxQEkSlos1GEjU62O1KFoRQw54NvLaDNxEJ5HB_yo9IvdTwfrpjrQh3UBynC5UW02VDAU0HdNEwm1tRfd3aAKdsAHCNf-Wc-vGNAuDGRUCk&indpubnum=4889224015872296&atk=190a5mshf1d5i27q,1,1,0,0,0,0,0,0,0,0,0,0,0,0,0,1,0
Salt Lake City,ASEA,US,2014-08-25 19:18:45,fa8083ace10e1843,"Business Intelligence SQL Developer, Data Analyst Report Writer",40.758244,-111.89011,UT,http://www.indeed.com/viewjob?jk=fa8083ace10e1843&qd=MxQEkSlos1GEjU62O1KFoRQw54NvLaDNxEJ5HB_yo9IvdTwfrpjrQh3UBynC5UW02VDAU0HdNEwm1tRfd3aAKdsAHCNf-Wc-vGNAuDGRUCk&indpubnum=4889224015872296&atk=190a5mshf1d5i27q,1,1,0,0,0,0,0,0,0,0,0,0,0,0,0,1,0
Atlanta,Cardlytics Corporation,US,2014-08-25 19:17:55,7d313f8a3af5af76,Data Analyst,33.747253,-84.38461,GA,http://www.indeed.com/viewjob?jk=7d313f8a3af5af76&qd=MxQEkSlos1GEjU62O1KFoRQw54NvLaDNxEJ5HB_yo9LNwCtnSNwkyNdqADMRsp0qGPnusQxy_m1-iys11mXFOL9ufMPhjiaFDt3eTpUmMvY&indpubnum=4889224015872296&atk=190a53lte1d4h7a1,1,1,0,1,0,0,0,0,0,0,0,0,0,0,0,0,0
Denver,Craftsy,US,2014-08-25 19:12:09,8309e8ce08409b24,SQL Data Analyst,39.747253,-104.98901,CO,http://www.indeed.com/viewjob?jk=8309e8ce08409b24&qd=MxQEkSlos1GEjU62O1KFoRQw54NvLaDNxEJ5HB_yo9IrKAxaAZAJmmRE2mGDz-1JYyxJ1mIsKdyqzLj5sotZUTgKnFPKLGAcxfyCcq5lBSo&indpubnum=4889224015872296&atk=190a513ch1d3266c,1,1,0,1,0,0,0,0,0,0,0,0,0,0,1,0,0
,State of Oklahoma,US,2014-08-25 19:09:58,3b690a7ac85b1349,Data Analyst / Systems Analyst,,,OK,http://www.indeed.com/viewjob?jk=3b690a7ac85b1349&qd=MxQEkSlos1GEjU62O1KFoRQw54NvLaDNxEJ5HB_yo9L0R-wZsqEkCFmp_lSVqg6DD8f7lw2UxdxWldkJhjEz9FwVeAUj5A8cF-b4V0ad1Cc&indpubnum=4889224015872296&atk=190a5hl1v1d4i7q7,0,1,0,0,0,0,0,0,0,1,0,0,0,0,1,1,0
Arlington,Evolent Health,US,2014-08-25 19:08:00,ed15f187cb517bc8,Sr. Clinical Data Analyst,38.87912,-77.0989,VA,http://www.indeed.com/viewjob?jk=ed15f187cb517bc8&qd=MxQEkSlos1GEjU62O1KFoRQw54NvLaDNxEJ5HB_yo9JJuNxUwSX-dwk-w0wHXusNOEyi7Ig2BiUiTPzAZ8bhd7u7ogirHcm_QTCvt4Vb73w&indpubnum=4889224015872296&atk=190a525ip1d4h5jq,0,1,0,0,0,0,0,0,0,0,0,0,0,0,0,0,0
New York,Access Staffing,US,2014-08-25 18:59:01,ffa2e0383ee36268,Applications Support/Data Analyst,40.71154,-74.00549,NY,http://www.indeed.com/viewjob?jk=ffa2e0383ee36268&qd=MxQEkSlos1GEjU62O1KFoRQw54NvLaDNxEJ5HB_yo9KUPDXN_D2AI1pADZ5diohv_MQgRfwuc1MYwhqfMjIoKG8aNGOcT_y2Q5lXCz6jV5s&indpubnum=4889224015872296&atk=190a5f8rs1d41202,1,1,0,0,0,0,0,0,0,0,0,0,0,0,0,0,0
Chicago,Insight Global,US,2014-08-25 18:53:18,3766e1d2e1797640,Data Analyst,41.8489,-87.64835,IL,http://www.indeed.com/viewjob?jk=3766e1d2e1797640&qd=MxQEkSlos1GEjU62O1KFoRQw54NvLaDNxEJ5HB_yo9Ji_N1lCNco_1Qb6o_wn_YYbUylFMtGSdj3wGw9oPlG2gvTIwPGDPu2at-8N_fRUvs&indpubnum=4889224015872296&atk=190a551a01d3h739,0,1,0,0,0,0,0,0,0,0,0,0,0,0,0,0,0
Brooklyn,"Amplify Education, Inc.",US,2014-08-25 18:49:16,5c8f8b0395093cf4,Statistician,40.64835,-73.94505,NY,http://www.indeed.com/viewjob?jk=5c8f8b0395093cf4&qd=MxQEkSlos1GEjU62O1KFoRQw54NvLaDNxEJ5HB_yo9KUPDXN_D2AI1pADZ5diohv_MQgRfwuc1MYwhqfMjIoKG8aNGOcT_y2Q5lXCz6jV5s&indpubnum=4889224015872296&atk=190a5f8ap1d6220c,0,1,0,1,0,0,0,1,0,0,0,0,0,0,0,1,0
Reston,comScore,US,2014-08-25 18:31:48,8abc1208215a5928,Senior Data Analyst,38.967033,-77.34066,VA,http://www.indeed.com/viewjob?jk=8abc1208215a5928&qd=MxQEkSlos1GEjU62O1KFoRQw54NvLaDNxEJ5HB_yo9JJuNxUwSX-dwk-w0wHXusNOEyi7Ig2BiUiTPzAZ8bhd8XvaWNpF7D8k6h9M4MbtTs&indpubnum=4889224015872296&atk=190a526gf1d611ig,1,1,0,1,0,0,0,0,0,0,1,0,0,0,1,0,0
Gardner,Mount Wachusett Community College,US,2014-08-25 18:20:50,4911e0cbcfd62fc1,Data Analyst and Project Manager - AMMQC Consortium,42.574177,-71.99451,MA,http://www.indeed.com/viewjob?jk=4911e0cbcfd62fc1&qd=MxQEkSlos1GEjU62O1KFoRQw54NvLaDNxEJ5HB_yo9LulBvtWb3NvLPZ9bcwG7w0LKuJy9BzgjjY5yEKN_5Fi05z9lV3dHGAHdatI1XZpNY&indpubnum=4889224015872296&atk=190a592231d5i6u2,1,0,0,0,0,0,0,0,0,0,0,0,0,0,1,0,0
Irving,Targetbase,US,2014-08-25 18:09:15,449736a6fcb7451f,"Data Analyst,",32.813187,-96.94505,TX,http://www.indeed.com/viewjob?jk=449736a6fcb7451f&qd=MxQEkSlos1GEjU62O1KFoRQw54NvLaDNxEJ5HB_yo9KLdT4cW5TS8hByZED3VJdosY2RNltsQsMe6iuw_4n_rXKIb55PbZuaudVs0tL2puM&indpubnum=4889224015872296&atk=190a5m4nf1d5i1i3,0,1,0,0,0,0,0,0,0,0,0,0,0,0,1,1,0
Tallahassee,Moten Tate Inc,US,2014-08-25 18:05:26,2638fa314c91d503,Data Warehouse Analyst,30.428572,-84.25275,FL,http://www.indeed.com/viewjob?jk=2638fa314c91d503&qd=MxQEkSlos1GEjU62O1KFoRQw54NvLaDNxEJ5HB_yo9LLBCiPjkU9KpwDU5bpt3OiEL9x_Tpofxobm740digpX6PROgF6AMiHNVDQqgU7yWA&indpubnum=4889224015872296&atk=190a533q71d3h642,1,1,0,0,0,0,0,0,0,0,0,0,0,0,0,0,0
Mequon,WageWorks,US,2014-08-25 18:04:44,b724068117abc4b9,Sr. Data Analyst Contractor [A1459],43.236263,-87.98351,WI,http://www.indeed.com/viewjob?jk=b724068117abc4b9&qd=MxQEkSlos1GEjU62O1KFoRQw54NvLaDNxEJ5HB_yo9LQbus8L0MSQrDv8tcQIaSDR-cMb1niemHniBsA_Pz47KgigbPPwQaD7qyVKWi-GoY&indpubnum=4889224015872296&atk=190a5q04p1d622ds,0,1,0,0,0,0,0,0,0,0,0,0,0,0,1,0,0
Las Vegas,MGM Resorts International,US,2014-08-25 17:59:15,1a3fcad696ac19e3,Data Analyst-Strategic Operations,36.173077,-115.13187,NV,http://www.indeed.com/viewjob?jk=1a3fcad696ac19e3&qd=MxQEkSlos1GEjU62O1KFoRQw54NvLaDNxEJ5HB_yo9J-B3zzLLqa0QeldmJgOXqsdpq9QaAgKJlesr5GZPnC8byMPeA2jfuIdqASM1h_rjI&indpubnum=4889224015872296&atk=190a5ctmt1d5i6kq,0,0,0,0,0,0,0,0,0,0,0,0,0,0,0,0,0
Woodbridge,Robert Half Technology,US,2014-08-25 17:59:00,a7737704acf11c05,"Data Analyst (VBA, Access, SQL)",40.557693,-74.28571,NJ,http://www.indeed.com/viewjob?jk=a7737704acf11c05&qd=MxQEkSlos1GEjU62O1KFoRQw54NvLaDNxEJ5HB_yo9IuoauPq75eD-dhOEz8DE_n8gtCm65lPbNJ01qX1cWx2UoskdDmAdFiBqe4FPyvqEI&indpubnum=4889224015872296&atk=190a5e2tu1d3i3un,1,1,0,0,0,0,0,0,0,0,0,0,0,0,1,0,0
Oklahoma City,Robert Half Technology,US,2014-08-25 17:59:00,63e4d93236f3512e,Database Analyst,35.513737,-97.52198,OK,http://www.indeed.com/viewjob?jk=63e4d93236f3512e&qd=MxQEkSlos1GEjU62O1KFoRQw54NvLaDNxEJ5HB_yo9L0R-wZsqEkCFmp_lSVqg6DD8f7lw2UxdxWldkJhjEz9FwVeAUj5A8cF-b4V0ad1Cc&indpubnum=4889224015872296&atk=190a5hl1v1d4i7q7,0,1,0,0,1,0,1,0,0,0,0,0,0,0,0,0,0
Covington,Poolcorp,US,2014-08-25 17:51:42,1a3d2a09288e5ff2,IT Data Analyst,30.456043,-90.10989,LA,http://www.indeed.com/viewjob?jk=1a3d2a09288e5ff2&qd=MxQEkSlos1GEjU62O1KFoRQw54NvLaDNxEJ5HB_yo9I67ErWQ-hiBzUuT9dm-QI1P5UossZuJ7aM-Kyj6OzRP_gHzNySTZVHRUD7jSLk490&indpubnum=4889224015872296&atk=190a57gmc1d324tl,1,1,0,0,0,0,0,0,0,0,0,0,0,0,0,1,0
Memphis,CyberCoders,US,2014-08-25 17:37:15,cc81b6e1708dc276,Digital Analyst,35.14835,-90.04395,TN,http://www.indeed.com/viewjob?jk=cc81b6e1708dc276&qd=MxQEkSlos1GEjU62O1KFoRQw54NvLaDNxEJ5HB_yo9Ihp7auWX2VRwgIPe-m7Fu12VDAU0HdNEwm1tRfd3aAKRV8CGuGn_EiEWTKgPHaGQM&indpubnum=4889224015872296&atk=190a5lekp1d512oo,1,0,0,0,0,0,0,0,0,0,0,0,0,0,0,0,0
Folsom,Experis,US,2014-08-25 17:36:57,74824a1145b0ba97,Data Analyst,38.675823,-121.17583,CA,http://www.indeed.com/viewjob?jk=74824a1145b0ba97&qd=MxQEkSlos1GEjU62O1KFoRQw54NvLaDNxEJ5HB_yo9KhckHN80-uURCmMV-ouodrGp6jym_krcGFaWElJybt0fWjcEjh4gTkJgkG9GZHrA4&indpubnum=4889224015872296&atk=190a50knm1d4i0gs,1,0,0,0,0,0,0,0,0,0,0,0,0,0,0,0,0
Houston,The University of Texas MD Anderson Cancer Center,US,2014-08-25 17:34:38,94d4c5a4157985f8,Data Analytics Analyst - Internal Audit,29.708792,-95.39561,TX,http://www.indeed.com/viewjob?jk=94d4c5a4157985f8&qd=MxQEkSlos1GEjU62O1KFoRQw54NvLaDNxEJ5HB_yo9KLdT4cW5TS8hByZED3VJdosY2RNltsQsMe6iuw_4n_rbC6EHumDms3WSQ1vjU-knw&indpubnum=4889224015872296&atk=190a5m5121d713o0,0,0,0,0,0,0,0,0,0,0,0,0,0,0,1,1,0
San Jose,TEKsystems,US,2014-08-25 17:20:47,5c4ac8759f973c40,Data Analyst,37.337914,-121.89011,CA,http://www.indeed.com/viewjob?jk=5c4ac8759f973c40&qd=MxQEkSlos1GEjU62O1KFoRQw54NvLaDNxEJ5HB_yo9KhckHN80-uURCmMV-ouodrGp6jym_krcGFaWElJybt0fWjcEjh4gTkJgkG9GZHrA4&indpubnum=4889224015872296&atk=190a50knm1d4i0gs,1,0,0,0,0,0,0,0,0,0,0,0,0,0,0,0,0
Alpharetta,TEKsystems,US,2014-08-25 17:20:40,ee962c2d1409fc41,Data Analyst,34.074177,-84.29121,GA,http://www.indeed.com/viewjob?jk=ee962c2d1409fc41&qd=MxQEkSlos1GEjU62O1KFoRQw54NvLaDNxEJ5HB_yo9LNwCtnSNwkyNdqADMRsp0qGPnusQxy_m1-iys11mXFOK40qiRV4FsQIjhNKSvSW2Q&indpubnum=4889224015872296&atk=190a53km11d4h3ie,1,0,0,0,0,0,0,0,0,0,0,0,0,0,0,0,0
Washington,TEKsystems,US,2014-08-25 17:20:39,5e4b40deb996d303,Sr. Data Analyst,38.892857,-77.03297,DC,http://www.indeed.com/viewjob?jk=5e4b40deb996d303&qd=MxQEkSlos1GEjU62O1KFoRQw54NvLaDNxEJ5HB_yo9JJuNxUwSX-dwk-w0wHXusNOEyi7Ig2BiUiTPzAZ8bhd7u7ogirHcm_QTCvt4Vb73w&indpubnum=4889224015872296&atk=190a5262n1d526c5,1,1,0,0,1,0,0,0,0,0,0,0,0,0,0,0,0
Plano,LifeCare Corporate Office,US,2014-08-25 17:18:09,358074a4262b0ff9,HR Data Analyst,33.01923,-96.6978,TX,http://www.indeed.com/viewjob?jk=358074a4262b0ff9&qd=MxQEkSlos1GEjU62O1KFoRQw54NvLaDNxEJ5HB_yo9KLdT4cW5TS8hByZED3VJdosY2RNltsQsMe6iuw_4n_rXKIb55PbZuaudVs0tL2puM&indpubnum=4889224015872296&atk=190a5m4nf1d5i1i3,1,0,0,0,0,0,0,0,0,0,0,0,0,0,0,1,0
Jacksonville,Arkansas Federal Credit Union,US,2014-08-25 16:59:31,9b755d3af0e89682,Business Intelligence Developer,34.873627,-92.12088,AR,http://www.indeed.com/viewjob?jk=9b755d3af0e89682&qd=MxQEkSlos1GEjU62O1KFoRQw54NvLaDNxEJ5HB_yo9I4OF9dooKaDdYApDKXhINQobh9m3MUcjrV0IXPVXoTEI13K9ijxvnq6PHdnKafo1E&indpubnum=4889224015872296&atk=190a5081a1d32232,1,0,0,0,0,0,0,0,0,0,0,0,0,0,0,0,0
Charlotte,Insight Global,US,2014-08-25 16:59:00,26c7d7ce064733b9,Data Analyst,35.225273,-80.84066,NC,http://www.indeed.com/viewjob?jk=26c7d7ce064733b9&qd=MxQEkSlos1GEjU62O1KFoRQw54NvLaDNxEJ5HB_yo9I7mSQq4nfhItdpLIhAcQhv5b84G9kPk0ZXIu9oaLz88lO0Pmg2DxQtLM_69ugIucM&indpubnum=4889224015872296&atk=190a5fu6v1d7254h,1,1,0,0,0,0,1,0,0,0,0,0,0,0,0,0,0
Bethesda,Medical Science & Computing,US,2014-08-25 16:42:18,3a5b8fbfd85365bd,ROMS Data Analyst,38.978024,-77.0989,MD,http://www.indeed.com/viewjob?jk=3a5b8fbfd85365bd&qd=MxQEkSlos1GEjU62O1KFoRQw54NvLaDNxEJ5HB_yo9JJuNxUwSX-dwk-w0wHXusNOEyi7Ig2BiUiTPzAZ8bhdxZp0YAHoVjVeaQQBYHgJVA&indpubnum=4889224015872296&atk=190a527bf1d3i19n,1,1,0,1,1,0,0,0,0,1,0,0,0,0,1,1,0
Los Angeles,Cognizant,US,2014-08-25 16:27:40,b03900ca8fd7418a,Data Analyst,34.052197,-118.24176,CA,http://www.indeed.com/viewjob?jk=b03900ca8fd7418a&qd=MxQEkSlos1GEjU62O1KFoRQw54NvLaDNxEJ5HB_yo9KhckHN80-uURCmMV-ouodrGp6jym_krcGFaWElJybt0QxcXH_0LlPhmrOJCaT-DQY&indpubnum=4889224015872296&atk=190a50k581d5i3a0,0,1,0,0,0,0,0,0,0,0,0,0,0,0,1,0,0
Salt Lake City,Kforce,US,2014-08-25 15:42:48,844b98ee240b37ff,Data Analyst/Data Scientist,40.752747,-111.87912,UT,http://www.indeed.com/viewjob?jk=844b98ee240b37ff&qd=MxQEkSlos1GEjU62O1KFoRQw54NvLaDNxEJ5HB_yo9IvdTwfrpjrQh3UBynC5UW02VDAU0HdNEwm1tRfd3aAKdsAHCNf-Wc-vGNAuDGRUCk&indpubnum=4889224015872296&atk=190a5mshf1d5i27q,1,1,0,0,0,0,0,0,0,0,0,0,0,0,1,0,0
Greenfield,Crotched Mountain Rehabilitation Center,US,2014-08-25 15:40:26,7d3e6588f6d3f9b0,Assistant Behavior Data Analyst,42.95055,-71.86813,NH,http://www.indeed.com/viewjob?jk=7d3e6588f6d3f9b0&qd=MxQEkSlos1GEjU62O1KFoRQw54NvLaDNxEJ5HB_yo9IsOzFI5QgDskIAYB6ZVfaqP5UossZuJ7aM-Kyj6OzRP1Uuxo23-iM0PwROq4leFWk&indpubnum=4889224015872296&atk=190a5dfj21d7274a,1,0,0,0,0,0,0,0,0,0,0,0,0,0,0,1,0
Harrisburg,NHS Human Services,US,2014-08-25 15:18:42,598f04fdd7301553,Data Analyst,40.271976,-76.87912,PA,http://www.indeed.com/viewjob?jk=598f04fdd7301553&qd=MxQEkSlos1GEjU62O1KFoRQw54NvLaDNxEJ5HB_yo9JBy2QeS2uKGSlme_PhyJLGmPkNxTj973naemBASyztlyFv9hTfj3LC5rfMCG2D_sI&indpubnum=4889224015872296&atk=190a5iu8i1d5i0vf,1,0,0,0,0,0,0,0,0,0,0,0,0,0,1,0,0
Nashville,Zycron,US,2014-08-25 15:06:00,e90e0d4e4db821b4,Financial Business Analyst,36.164837,-86.78022,TN,http://www.indeed.com/viewjob?jk=e90e0d4e4db821b4&qd=MxQEkSlos1GEjU62O1KFoRQw54NvLaDNxEJ5HB_yo9Ihp7auWX2VRwgIPe-m7Fu12VDAU0HdNEwm1tRfd3aAKRV8CGuGn_EiEWTKgPHaGQM&indpubnum=4889224015872296&atk=190a5lec01d4i285,1,1,0,0,0,0,0,0,0,0,0,0,0,0,1,1,0
San Francisco,Mozilla,US,2014-08-25 14:56:00,4935d7940a9195d7,Business Data Analyst,37.774727,-122.41758,CA,http://www.indeed.com/viewjob?jk=4935d7940a9195d7&qd=MxQEkSlos1GEjU62O1KFoRQw54NvLaDNxEJ5HB_yo9KhckHN80-uURCmMV-ouodrGp6jym_krcGFaWElJybt0fWjcEjh4gTkJgkG9GZHrA4&indpubnum=4889224015872296&atk=190a50l3t1d325d3,1,1,0,1,0,0,0,0,1,0,0,1,0,0,0,1,0
Boston,Huxley Associates,US,2014-08-25 14:55:10,9a76589d9496417b,"Hybrid Quantitative/Fundamental Data Analyst-Boston, MA",42.357143,-71.05495,MA,http://www.indeed.com/viewjob?jk=9a76589d9496417b&qd=MxQEkSlos1GEjU62O1KFoRQw54NvLaDNxEJ5HB_yo9LulBvtWb3NvLPZ9bcwG7w0LKuJy9BzgjjY5yEKN_5Fi1ozRFa0NjAL-TOceiUdhKA&indpubnum=4889224015872296&atk=190a593r81d4277p,1,0,0,0,0,0,0,0,0,0,0,0,0,0,0,0,0
Lexington,MIT Lincoln Laboratory,US,2014-08-25 14:55:00,cb6332e68d10562a,Data Analyst,42.445053,-71.21978,MA,http://www.indeed.com/viewjob?jk=cb6332e68d10562a&qd=MxQEkSlos1GEjU62O1KFoRQw54NvLaDNxEJ5HB_yo9LulBvtWb3NvLPZ9bcwG7w0LKuJy9BzgjjY5yEKN_5Fi05z9lV3dHGAHdatI1XZpNY&indpubnum=4889224015872296&atk=190a592231d5i6u2,0,0,0,0,1,1,0,1,0,0,0,0,0,0,1,1,0
Stamford,Top Prospect Group,US,2014-08-25 14:48:00,343e9f0476bf22cc,Data Analyst,41.052197,-73.53846,CT,http://www.indeed.com/viewjob?jk=343e9f0476bf22cc&qd=MxQEkSlos1GEjU62O1KFoRQw54NvLaDNxEJ5HB_yo9Jg8b-VFcmUXvVxg4X47-ltzoEXG8CUr0i7gI9pJSuFItBItJAcVdRaEYV2JlZpIJk&indpubnum=4889224015872296&atk=190a51iad1d615j1,1,1,0,0,1,0,0,0,0,0,1,1,0,0,0,0,0
Coral Gables,Kforce,US,2014-08-25 14:43:39,e9959f9bc09ff533,Data Analyst,25.717033,-80.26923,FL,http://www.indeed.com/viewjob?jk=e9959f9bc09ff533&qd=MxQEkSlos1GEjU62O1KFoRQw54NvLaDNxEJ5HB_yo9LLBCiPjkU9KpwDU5bpt3OiEL9x_Tpofxobm740digpX6PROgF6AMiHNVDQqgU7yWA&indpubnum=4889224015872296&atk=190a533ju1d521d8,1,0,0,0,0,0,0,0,0,0,0,0,0,0,0,1,0
Coral Gables,Kforce,US,2014-08-25 14:43:38,6a38915de9576be5,Junior Data Analyst,25.717033,-80.26923,FL,http://www.indeed.com/viewjob?jk=6a38915de9576be5&qd=MxQEkSlos1GEjU62O1KFoRQw54NvLaDNxEJ5HB_yo9LLBCiPjkU9KpwDU5bpt3OiEL9x_Tpofxobm740digpX6PROgF6AMiHNVDQqgU7yWA&indpubnum=4889224015872296&atk=190a533q71d3h642,1,1,0,0,0,0,0,0,0,0,0,0,0,0,0,1,0
Lincoln,Aerotek,US,2014-08-25 14:27:15,6aa2831099db9417,Data Analyst/Lab Technician,40.79945,-96.66483,NE,http://www.indeed.com/viewjob?jk=6aa2831099db9417&qd=MxQEkSlos1GEjU62O1KFoRQw54NvLaDNxEJ5HB_yo9LKy49teequufwFRr-UKlAQ2VDAU0HdNEwm1tRfd3aAKffjydzUY5qP8Em_Pw3OpYQ&indpubnum=4889224015872296&atk=190a5cb101d625pi,0,0,0,0,0,0,0,0,0,0,0,0,0,0,1,1,0
Carrollton,Sanmina-SCI Corporation,US,2014-08-25 14:01:00,5e8a8b464492de73,Global Supply Chain Director-Indirect Supply,32.953297,-96.89011,TX,http://www.indeed.com/viewjob?jk=5e8a8b464492de73&qd=MxQEkSlos1GEjU62O1KFoRQw54NvLaDNxEJ5HB_yo9KLdT4cW5TS8hByZED3VJdosY2RNltsQsMe6iuw_4n_rV420ArpygQmlUlOpbWW_EY&indpubnum=4889224015872296&atk=190a5m5tg1d4h3gs,1,0,0,0,0,0,0,0,0,0,0,0,0,0,1,1,0
Roseland,Prudential,US,2014-08-25 14:00:32,c34ceb3ed0486b1e,"Implementation Data Analyst, Group Insurance",40.81868,-74.29121,NJ,http://www.indeed.com/viewjob?jk=c34ceb3ed0486b1e&qd=MxQEkSlos1GEjU62O1KFoRQw54NvLaDNxEJ5HB_yo9IuoauPq75eD-dhOEz8DE_n8gtCm65lPbNJ01qX1cWx2UoskdDmAdFiBqe4FPyvqEI&indpubnum=4889224015872296&atk=190a5e2l31d523nd,1,0,0,0,0,0,0,0,0,0,0,0,0,0,0,0,0
Allentown,Grand View Hospital,US,2014-08-25 13:45:50,201597b9538fe874,"Decision Support Specialist, Health Information Systmes (SAS, SPPS, Meditech)",40.5989,-75.47253,PA,http://www.indeed.com/viewjob?jk=201597b9538fe874&qd=MxQEkSlos1GEjU62O1KFoRQw54NvLaDNxEJ5HB_yo9JBy2QeS2uKGSlme_PhyJLGmPkNxTj973naemBASyztlyFv9hTfj3LC5rfMCG2D_sI&indpubnum=4889224015872296&atk=190a5iupn1d6i5k0,0,1,0,0,0,0,1,0,0,0,0,0,1,0,1,0,0
Bellevue,Concur,US,2014-08-25 13:20:00,4d0d6199877e3e41,Business Intelligence Developer Analyst II,47.60989,-122.1978,WA,http://www.indeed.com/viewjob?jk=4d0d6199877e3e41&qd=MxQEkSlos1GEjU62O1KFoRQw54NvLaDNxEJ5HB_yo9L3eGb1R6djEvbLTasqTfyz4Z0r1R5zmkNbj4VOJWHLHFjMuIZOSm00Jj-u8fFXwhc&indpubnum=4889224015872296&atk=190a5opqt1d314qd,0,1,0,0,0,0,0,0,0,0,0,0,0,0,0,1,0
Englewood,DISH,US,2014-08-25 13:04:00,2170f07464637891,Marketing Data Analyst,39.645603,-104.98351,CO,http://www.indeed.com/viewjob?jk=2170f07464637891&qd=MxQEkSlos1GEjU62O1KFoRQw54NvLaDNxEJ5HB_yo9IrKAxaAZAJmmRE2mGDz-1JYyxJ1mIsKdyqzLj5sotZUTgKnFPKLGAcxfyCcq5lBSo&indpubnum=4889224015872296&atk=190a5136g1d421i2,1,1,0,0,0,0,1,0,0,0,0,0,1,0,1,0,0
Englewood,DISH,US,2014-08-25 13:04:00,885689848a8ddcb4,Mid Level-Data Analyst/Developer,39.645603,-104.98351,CO,http://www.indeed.com/viewjob?jk=885689848a8ddcb4&qd=MxQEkSlos1GEjU62O1KFoRQw54NvLaDNxEJ5HB_yo9IrKAxaAZAJmmRE2mGDz-1JYyxJ1mIsKdyqzLj5sotZUTgKnFPKLGAcxfyCcq5lBSo&indpubnum=4889224015872296&atk=190a513ch1d3266c,0,1,0,0,1,0,0,0,0,0,0,0,0,0,1,1,0
Marshfield,Marshfield Clinic,US,2014-08-25 12:54:00,6245e861cbf3dabd,Data Analyst,44.667583,-90.17033,WI,http://www.indeed.com/viewjob?jk=6245e861cbf3dabd&qd=MxQEkSlos1GEjU62O1KFoRQw54NvLaDNxEJ5HB_yo9LQbus8L0MSQrDv8tcQIaSDR-cMb1niemHniBsA_Pz47KgigbPPwQaD7qyVKWi-GoY&indpubnum=4889224015872296&atk=190a5pvs81d5i267,1,0,0,0,0,0,0,0,0,0,0,0,0,0,0,0,0
Norcross,Ericsson,US,2014-08-25 12:50:00,1bf75de7f345e4a0,Portfolio Data Analyst Intern 1,33.93956,-84.20879,GA,http://www.indeed.com/viewjob?jk=1bf75de7f345e4a0&qd=MxQEkSlos1GEjU62O1KFoRQw54NvLaDNxEJ5HB_yo9LNwCtnSNwkyNdqADMRsp0qGPnusQxy_m1-iys11mXFOK40qiRV4FsQIjhNKSvSW2Q&indpubnum=4889224015872296&atk=190a53km11d4h3ie,0,0,0,0,0,0,0,0,0,0,0,0,0,0,0,1,0
Vancouver,Peacehealth,US,2014-08-25 12:50:00,874b207151f30587,Epic Clarity Analytic Reporting Developer Job,45.637363,-122.65934,WA,http://www.indeed.com/viewjob?jk=874b207151f30587&qd=MxQEkSlos1GEjU62O1KFoRQw54NvLaDNxEJ5HB_yo9L3eGb1R6djEvbLTasqTfyz4Z0r1R5zmkNbj4VOJWHLHFjMuIZOSm00Jj-u8fFXwhc&indpubnum=4889224015872296&atk=190a5opqt1d314qd,1,1,0,0,0,0,1,0,0,0,0,0,1,0,1,1,0
Aurora,Kaiser Permanente,US,2014-08-25 12:47:00,2276552be7527b5a,"Data Analyst III, Healthcare / SAS ( Job Number: 237366 )",39.728024,-104.82967,CO,http://www.indeed.com/viewjob?jk=2276552be7527b5a&qd=MxQEkSlos1GEjU62O1KFoRQw54NvLaDNxEJ5HB_yo9IrKAxaAZAJmmRE2mGDz-1JYyxJ1mIsKdyqzLj5sotZUTgKnFPKLGAcxfyCcq5lBSo&indpubnum=4889224015872296&atk=190a5136g1d421i2,1,1,0,0,0,0,1,0,0,0,0,0,0,0,1,0,0
Greenville,Bon Secours Health System,US,2014-08-25 12:45:00,b07884ee0ad0b78b,CV DATA ABSTRACTOR ANALYS Job,34.85165,-82.39011,SC,http://www.indeed.com/viewjob?jk=b07884ee0ad0b78b&qd=MxQEkSlos1GEjU62O1KFoRQw54NvLaDNxEJ5HB_yo9IENHPFmhxHd1Z6cVJX8n2gezxp6HtNeobRzrUgmyplQHnkVefGj8IMaLCXGqnSkQw&indpubnum=4889224015872296&atk=190a5k89q1d627vp,0,0,0,0,0,0,0,0,0,0,0,0,0,0,1,0,0
San Diego,Kratos Defense & Security Solutions,US,2014-08-25 12:44:00,5ffa9fdaa9136aaa,Data Analyst,32.714287,-117.15385,CA,http://www.indeed.com/viewjob?jk=5ffa9fdaa9136aaa&qd=MxQEkSlos1GEjU62O1KFoRQw54NvLaDNxEJ5HB_yo9KhckHN80-uURCmMV-ouodrGp6jym_krcGFaWElJybt0QxcXH_0LlPhmrOJCaT-DQY&indpubnum=4889224015872296&atk=190a50k581d5i3a0,0,1,0,0,0,0,0,0,0,0,0,0,0,0,0,0,0
